t,sensor_depth_z,sensor_depth_z_true,sensor_depth_z_bias,sensor_depth_z_noise,sensor_attitude_roll,sensor_attitude_roll_true,sensor_attitude_roll_bias,sensor_attitude_roll_noise,sensor_attitude_pitch,sensor_attitude_pitch_true,sensor_attitude_pitch_bias,sensor_attitude_pitch_noise,sensor_attitude_yaw,sensor_attitude_yaw_true,sensor_attitude_yaw_bias,sensor_attitude_yaw_noise,sensor_gyro_p,sensor_gyro_p_true,sensor_gyro_p_bias,sensor_gyro_p_noise,sensor_gyro_q,sensor_gyro_q_true,sensor_gyro_q_bias,sensor_gyro_q_noise,sensor_gyro_r,sensor_gyro_r_true,sensor_gyro_r_bias,sensor_gyro_r_noise,sensor_dvl_u,sensor_dvl_u_true,sensor_dvl_u_bias,sensor_dvl_u_noise,sensor_dvl_v,sensor_dvl_v_true,sensor_dvl_v_bias,sensor_dvl_v_noise,sensor_dvl_w,sensor_dvl_w_true,sensor_dvl_w_bias,sensor_dvl_w_noise
0.0,10.0011363457702,10.0,-0.010748366301390833,0.01188471207159045,0.000893368061619727,0.0,-0.0011105867031148474,0.0020039547647345743,0.008489237192353281,0.0,0.00011162871187435136,0.00837760848047893,0.02906333365704014,0.0,0.003534944570134827,0.025528389086905315,0.002682466317973321,0.0,0.00027868150664405096,0.0024037848113292698,-0.002790216398335552,0.0,0.0001325299622491251,-0.002922746360584677,0.001382834218563641,0.0,-0.000677787816922016,0.002060622035485657,0.005599130371414598,0.0,0.0068733103943305045,-0.0012741800229159068,-0.011242824633143883,0.0,-0.009869456699525898,-0.0013733679336179858,-0.03729849219041745,0.0,-0.004196408858150414,-0.03310208333226703
0.03,,,,,-0.0021728229119454935,-8.220459870145191e-06,-0.0011105867031148474,-0.0010540157489605008,-0.005872877199055755,-0.001268879270689638,0.00011162871187435136,-0.004715626640240469,0.005192871629396689,0.0040395347711825735,0.003534944570134827,-0.0023816077119207103,-0.0018315566735216616,-0.002177421403605256,0.00027868150664405096,6.71832234395436e-05,-0.0479770218957523,-0.045146904182342754,0.0001325299622491251,-0.0029626476756586745,0.25016121130540014,0.2539608236118205,-0.000677787816922016,-0.0031218244894983065,,,,,,,,,,,,
0.06,10.000978067115573,10.000015123652318,-0.010748366301390833,0.011711309764646207,-0.003075830692915971,8.587086414024725e-05,-0.0011105867031148474,-0.002051114853941371,0.000876231827855269,-0.0022796684454498006,0.00011162871187435136,0.003044271561430718,0.019661109189024025,0.014458611213963746,0.003534944570134827,0.0016675534049254538,0.014069462066860623,0.005328988505406617,0.00027868150664405096,0.008461792054809954,-0.035932668838951874,-0.028882372885115505,0.0001325299622491251,-0.007182825916085492,0.4263583250483741,0.4296011600614432,-0.000677787816922016,-0.002565047196147112,,,,,,,,,,,,
0.09,,,,,-0.0006895145613513761,0.0001289536145798742,-0.0011105867031148474,0.0002921185271835971,-0.01131197439098971,-0.0036474954604388543,0.00011162871187435136,-0.007776107642425207,0.031802209355473905,0.029263263914157456,0.003534944570134827,-0.0009959991288183779,0.006586802691241356,0.0002432263438187825,0.00027868150664405096,0.006064894840778523,-0.03429207730712165,-0.04344674170819159,0.0001325299622491251,0.009022134438820814,0.5471197502141489,0.5496381132178007,-0.000677787816922016,-0.001840575186729637,,,,,,,,,,,,
0.12,9.990579693901866,10.000059897184522,-0.010748366301390833,0.0012681630187348864,-6.4092661418992895e-06,5.459477940839008e-05,-0.0011105867031148474,0.001049582657564558,-0.0006720540296434683,-0.005066571315719859,0.00011162871187435136,0.0042828885742020395,0.04652594808638714,0.04703785471295818,0.003534944570134827,-0.00404685119670587,-0.005761667327335253,-0.0007313463410942344,0.00027868150664405096,-0.00530900249288507,-0.04018416108643763,-0.04291744924857536,0.0001325299622491251,0.0026007581998885973,0.6317294984035592,0.6300464428690113,-0.000677787816922016,0.0023608433514698624,0.009049533963462295,0.014513725712187737,0.0068733103943305045,-0.01233750214305595,0.013093148493809563,0.0012378859929990055,-0.009869456699525898,0.021724719200336456,-0.03594133917772356,0.0006124054786699751,-0.004196408858150414,-0.032357335798243125
0.15,10.021590616545302,10.00008734739643,-0.010748366301390833,0.03225163545026159,-0.0006804605096744464,-0.0001898798870931806,-0.0011105867031148474,0.0006200060805335815,-0.003655948745399345,-0.005824508809309847,0.00011162871187435136,0.0020569313520361512,0.07547591294110613,0.06684460132317449,0.003534944570134827,0.005096367047796815,-0.007467485471217176,-0.005872656205522826,0.00027868150664405096,-0.0018735107723384004,-0.016141187962772023,-0.01930879773162851,0.0001325299622491251,0.003035079806607363,0.6837960039344855,0.686622957912874,-0.000677787816922016,-0.0021491661614664722,,,,,,,,,,,,
0.18,,,,,-0.0014265483124953219,-0.0005089084617648787,-0.0011105867031148474,0.00019294685238440413,-0.0011816264475092405,-0.006285870998139487,0.00011162871187435136,0.004992615838755895,0.09718670399871106,0.08801574619574515,0.003534944570134827,0.005636013232831084,8.663781041818794e-06,-0.0062782772816308745,0.00027868150664405096,0.006008259556028643,-0.008121557106780947,-0.012909223324547766,0.0001325299622491251,0.004655136255517695,0.7199819593828967,0.7223475128066004,-0.000677787816922016,-0.0016877656067816656,,,,,,,,,,,,
0.21,9.992579937414561,10.000162680087708,-0.010748366301390833,0.0031656236282435486,-4.2616009022239214e-05,-0.0009159310880471061,-0.0011105867031148474,0.0019839017821397143,-0.00582867666235916,-0.006768179197159885,0.00011162871187435136,0.000827873822926374,0.09579541828672208,0.11009354487388823,0.003534944570134827,-0.017833071157300977,-0.011653093592540872,-0.009651416533176539,0.00027868150664405096,-0.0022803585660083844,-0.019634456748391375,-0.014918772147775277,0.0001325299622491251,-0.004848214562865222,0.7452745696081582,0.7477344126258129,-0.000677787816922016,-0.0017820552007326216,0.01293737516866761,0.0165686346498769,0.0068733103943305045,-0.010504569875539797,-0.013208203377746051,0.0001254714024642253,-0.009869456699525898,-0.003464218080684379,0.0031543739706659515,0.001359067052397657,-0.004196408858150414,0.005991715776418709
0.24,,,,,0.007943417002846244,-0.001293693533096274,-0.0011105867031148474,0.010347697239057365,-0.006172968486194323,-0.007227444428845153,0.00011162871187435136,0.0009428472307764795,0.14110460878906297,0.13279989618496435,0.003534944570134827,0.004769768033963789,-0.008881382858372065,-0.005825754341340885,0.00027868150664405096,-0.003334310023675231,-0.006412283559427885,-0.014278189397188378,0.0001325299622491251,0.007733375875511368,0.7646285947184077,0.7647817575359843,-0.000677787816922016,0.0005246249993454522,,,,,,,,,,,,
0.27,9.978505294620378,10.000250856019035,-0.010748366301390833,-0.010997195097266342,0.003081448484662136,-0.0016625483630612337,-0.0011105867031148474,0.005854583550838217,-0.002221793542492994,-0.007548435557358513,0.00011162871187435136,0.005215013302991168,0.15602320064975927,0.15593846145229717,0.003534944570134827,-0.0034502053726727256,-0.005895381780390502,-0.00643014395798968,0.00027868150664405096,0.00025608067095512707,-0.010514537194404249,-0.00963834004857109,0.0001325299622491251,-0.0010087271080822834,0.7754364255068799,0.7768817247783718,-0.000677787816922016,-0.0007675114545698488,,,,,,,,,,,,
0.3,9.976287376349047,10.000297198676794,-0.010748366301390833,-0.013261456026355749,-0.003640617969075435,-0.0020990285847890533,-0.0011105867031148474,-0.0004310026811715342,-0.017247521657999254,-0.007693916635513887,0.00011162871187435136,-0.00966523373435972,0.19352348802879668,0.17937823289944177,0.003534944570134827,0.010610310559220081,-0.010187718172327482,-0.008849447296693135,0.00027868150664405096,-0.001616952382278398,0.002389685654451225,-0.004435130416318399,0.0001325299622491251,0.0066922861085204986,0.7821185208628753,0.785136690460543,-0.000677787816922016,-0.0023403817807457093,0.05544210589093497,0.021194095180949894,0.0068733103943305045,0.02737470031565457,-0.007249742567501187,-0.0012007853247204747,-0.009869456699525898,0.0038204994567451866,-0.020232688117227258,0.001349086946645112,-0.004196408858150414,-0.017385366205721956
0.32999999999999996,,,,,-0.006227053498543118,-0.002394146347610704,-0.0011105867031148474,-0.0027223204478175663,-0.013815365040762917,-0.007631090481100333,0.00011162871187435136,-0.0062959032715369356,0.17491635335025874,0.20303767734280553,0.003534944570134827,-0.031656268562681646,-0.0062811467319247895,-0.0008484354852726413,0.00027868150664405096,-0.005711392753296199,-0.004184911425105044,0.0014544539103566005,0.0001325299622491251,-0.00577189529771077,0.7851977317236296,0.7916536335420933,-0.000677787816922016,-0.005778114001541601,,,,,,,,,,,,
0.36,9.974623633913199,10.000380670390953,-0.010748366301390833,-0.015008670176363408,-0.008639355242874226,-0.0022012411910901086,-0.0011105867031148474,-0.00532752734866927,-0.0016854843472822283,-0.007313696210816012,0.00011162871187435136,0.005516583151659433,0.2461123630884111,0.22683566736131855,0.003534944570134827,0.015741751156957737,0.01897083829694239,0.01821559720680046,0.00027868150664405096,0.00047655958349787994,0.012159760540841703,0.009098379151760913,0.0001325299622491251,0.0029288514268316656,0.7942090206652141,0.7946315984560808,-0.000677787816922016,0.0002552100260554583,,,,,,,,,,,,
0.39,,,,,0.0026213711875654054,-0.002212280356828522,-0.0011105867031148474,0.005944238247508775,-0.003751929524626526,-0.0071671677043574356,0.00011162871187435136,0.0033036094678565585,0.25745789736453956,0.25071744488863024,0.003534944570134827,0.0032055079057745142,-0.004347884323580956,-0.0010007744935690774,0.00027868150664405096,-0.00362579133665593,0.006588846900615527,0.002804714540086732,0.0001325299622491251,0.0036516023982796695,0.800181355646158,0.7972970469874813,-0.000677787816922016,0.0035620964755988423,,,,,,,,,,,,
0.42,9.940337913232364,10.000467625883926,-0.010748366301390833,-0.049381346350172856,-0.0011229120534590438,-0.002581267681912802,-0.0011105867031148474,0.0025689423315686057,-0.01045251627613455,-0.006959834337997073,0.00011162871187435136,-0.0036043106500118272,0.2750565759779575,0.274665903121452,0.003534944570134827,-0.0031442717136292747,-0.0011820020873262328,-0.00862353377484294,0.00027868150664405096,0.007162850180872657,0.012778408865419328,0.005686336265548209,0.0001325299622491251,0.006959542637621995,0.7980978222661499,0.7991304194332315,-0.000677787816922016,-0.00035480935015955737,0.023394058200731767,0.025068844455041442,0.0068733103943305045,-0.008548096648640183,-0.01119669376458525,-0.0029495001483536808,-0.009869456699525898,0.001622263083294328,-0.0008357352374504458,0.0013903372164917596,-0.004196408858150414,0.0019703364042082086
0.44999999999999996,10.007231237792404,10.000517134327845,-0.010748366301390833,0.017462469765949323,-0.006834573777515169,-0.002905890132413269,-0.0011105867031148474,-0.002818096941987052,-0.0048220001874537035,-0.006807569031075378,0.00011162871187435136,0.001873940131747323,0.30219745831235917,0.29864042629639886,0.003534944570134827,2.208744582550761e-05,-0.008848462905531682,-0.0033664300446983354,0.00027868150664405096,-0.0057607143674773984,0.0006189202081748483,0.0024403439052489238,0.0001325299622491251,-0.0019539536593232007,0.7978430945274925,0.7991395290233156,-0.000677787816922016,-0.0006186466789011357,,,,,,,,,,,,
0.48,,,,,-0.004977705778234861,-0.003193094942797625,-0.0011105867031148474,-0.0006740241323223882,-0.003065422107593324,-0.006393697762016259,0.00011162871187435136,0.0032166469425485844,0.3344299352469885,0.3226459281020122,0.003534944570134827,0.008249062574841492,-0.004005391925603625,-0.003899540250145257,0.00027868150664405096,-0.00038453318210241865,0.006812284813561923,0.01235117094715523,0.0001325299622491251,-0.005671416095842433,0.8065986932953106,0.8011197746882583,-0.000677787816922016,0.006156706423974398,,,,,,,,,,,,
0.51,10.000193060429298,10.000633337458346,-0.010748366301390833,0.010308089272342036,0.0020389889886015308,-0.003379759275687899,-0.0011105867031148474,0.006529334967404278,-0.0016211978108255096,-0.006021914034215037,0.00011162871187435136,0.004289087511515176,0.34834348449198566,0.34668508166041834,0.003534944570134827,-0.0018765417385674808,-0.004172716422122533,0.00015679447556836597,0.00027868150664405096,-0.00460819240433495,0.004156776577825953,0.008673239822717047,0.0001325299622491251,-0.004648993207140219,0.8030051002215067,0.8014947345109523,-0.000677787816922016,0.0021881535274764757,,0.02765376696380985,0.0068733103943305045,,,-0.004233683884301544,-0.009869456699525898,,,0.0018856014636991923,-0.004196408858150414,
0.54,,,,,-0.001842237159278534,-0.0036415388748132216,-0.0011105867031148474,0.0029098884186495354,-0.004472050964840733,-0.005524060822733379,0.00011162871187435136,0.0009403811460182947,0.3596578276143018,0.37071865815031124,0.003534944570134827,-0.01459577510614424,-0.005968387669397519,-0.005415895580581688,0.00027868150664405096,-0.0008311735954598808,0.01071241866971303,0.013883835346204205,0.0001325299622491251,-0.003303946638740301,0.7991943457061056,0.8008614336765297,-0.000677787816922016,-0.0009893001535021203,,,,,,,,,,,,
0.57,10.030504263000148,10.000737111481738,-0.010748366301390833,0.040515517819800534,-0.004443630354046456,-0.004051419342358642,-0.0011105867031148474,0.0007183756914270342,4.244299617912287e-05,-0.005144723051952127,0.00011162871187435136,0.005075537336256899,0.4118174777313927,0.3947357786206038,0.003534944570134827,0.013546754540654054,-0.012252306011990965,-0.010661841835405597,0.00027868150664405096,-0.0018691456832294184,0.005801591180147831,0.008360997548804698,0.0001325299622491251,-0.002691936330905992,0.8001907972847909,0.800377541333426,-0.000677787816922016,0.0004910437682869641,,,,,,,,,,,,
0.6,10.010973187596584,10.000773170266253,-0.010748366301390833,0.020948383631720864,-0.007863071339385486,-0.004294308414895642,-0.0011105867031148474,-0.002458176221374996,-0.008640526673333572,-0.004389592659559405,0.00011162871187435136,-0.004362562725648517,0.4135811358210305,0.418745472164221,0.003534944570134827,-0.0086992809133253,0.002249080175273971,-0.00024674578369701314,0.00027868150664405096,0.0022171444523269336,0.01901946934910628,0.021963825960575247,0.0001325299622491251,-0.003076886573718092,0.7970030298488756,0.8004152911109214,-0.000677787816922016,-0.002734473445123643,0.03703947305955239,0.026783503891835696,0.0068733103943305045,0.0033826587733861856,-0.04135233001500213,-0.007413376357410152,-0.009869456699525898,-0.024069496958066077,-0.016836918470814297,0.0008379765415098485,-0.004196408858150414,-0.013478486154173732
0.63,,,,,-0.002061389461139028,-0.0043140304558919595,-0.0011105867031148474,0.0033632276978677795,-0.0018427526786357013,-0.0037622883164480925,0.00011162871187435136,0.0018079069259380397,0.48183886698754763,0.4427532529061118,0.003534944570134827,0.03555066951130101,-0.0007633944270692711,0.00374437024295982,0.00027868150664405096,-0.004786446176673142,0.021480912450228,0.015098388931914846,0.0001325299622491251,0.006249993556064026,0.8019804378202522,0.8002544138871911,-0.000677787816922016,0.0024038117499831754,,,,,,,,,,,,
0.6599999999999999,9.996542087682169,10.000824159249825,-0.010748366301390833,0.006466294733733208,-0.010001917165391207,-0.004480330767334451,-0.0011105867031148474,-0.0044109996949419075,-0.007410731743559192,-0.0031030960806046615,0.00011162871187435136,-0.004419264374828882,0.44416740021537887,0.4667454172231329,0.003534944570134827,-0.026112961577888828,-0.007136169105516664,-0.0053725876560391335,0.00027868150664405096,-0.002042262956121581,0.02053140754865721,0.017742984013921444,0.0001325299622491251,0.0026558935724866456,0.7991003875205668,0.7994444244736583,-0.000677787816922016,0.0003337508638305476,,,,,,,,,,,,
0.69,,,,,-0.004597363497863641,-0.004417290742178004,-0.0011105867031148474,0.0009305139474292108,0.002487867485874948,-0.002634468173155824,0.00011162871187435136,0.00501070694715642,0.4594855442354938,0.4907583182617361,0.003534944570134827,-0.03480771859637713,0.0024590687729768345,0.008574629639903832,0.00027868150664405096,-0.006394242373571048,0.011277929495004693,0.009650615336412774,0.0001325299622491251,0.0014947841963427928,0.7990286792658011,0.8013838544063708,-0.000677787816922016,-0.0016773873236476926,,,,,,,,,,,,
0.72,10.016090327163399,10.000856787660071,-0.010748366301390833,0.025981905804718024,-0.004935505833746233,-0.004373314332918543,-0.0011105867031148474,0.0005483952022871581,-0.0027070627475537816,-0.002222941993742289,0.00011162871187435136,-0.0005957494656858443,0.5397549226884433,0.5147682428035942,0.003534944570134827,0.021451735314714202,0.005082177853996176,0.0009363911256642784,0.00027868150664405096,0.003867105221687847,0.005414764964737564,0.009680824833921667,0.0001325299622491251,-0.004398589831433228,0.7973063801052557,0.7995064305882514,-0.000677787816922016,-0.001522262666073661,0.025950698650506327,0.02771152282957304,0.0068733103943305045,-0.008634134573397217,-0.03503696707880153,-0.011481024222785343,-0.009869456699525898,-0.013686486156490289,-0.002288596273061024,0.0002479796595084903,-0.004196408858150414,0.0016598329255809003
0.75,9.994915160571303,10.00086356366374,-0.010748366301390833,0.004799963208952996,-0.0035457430251525186,-0.004399466791467965,-0.0011105867031148474,0.0019643104694302945,-0.00022443136819773227,-0.0020223879038998582,0.00011162871187435136,0.0016863278238277745,0.5572650380914824,0.5387759569087089,0.003534944570134827,0.014954136612638716,0.002247083853315684,0.0005019331050233643,0.00027868150664405096,0.0014664692416482686,0.0027989700795286185,0.0018893086716233647,0.0001325299622491251,0.0007771314456561289,0.7997040845747704,0.8009507323681923,-0.000677787816922016,-0.000568859976499791,,,,,,,,,,,,
0.78,,,,,-0.0028716378271046897,-0.004580947961940307,-0.0011105867031148474,0.002819896837950465,0.0021761396706415216,-0.0018173744633220856,0.00011162871187435136,0.0038818854220892558,0.5949106682917026,0.5627684265000386,0.003534944570134827,0.028607297221529167,-0.009882114678952014,-0.006426406673678498,0.00027868150664405096,-0.0037343895119175668,0.003042340508606533,0.003543889364775286,0.0001325299622491251,-0.0006340788184178784,0.7943904427799203,0.7987417268139038,-0.000677787816922016,-0.0036734962170613798,,,,,,,,,,,,
0.8099999999999999,9.973720760906641,10.000859952605062,-0.010748366301390833,-0.016390825397029747,-0.009003832005243389,-0.004709346228125355,-0.0011105867031148474,-0.003183899074003185,0.0009634348910351614,-0.0014871545709156386,0.00011162871187435136,0.0023389607500764486,0.5694595733113478,0.5867269165389235,0.003534944570134827,-0.02080228779771058,-0.00018635260202791312,-0.00093060093547284,0.00027868150664405096,0.0004655668268008759,0.00643934433175777,0.007294949572725558,0.0001325299622491251,-0.0009881352032169127,0.8025436920915374,0.7985708270909404,-0.000677787816922016,0.004650652817519096,0.036415083593585626,0.027470436170810252,0.0068733103943305045,0.00207133702844487,-0.01363218417482052,-0.015267259684872806,-0.009869456699525898,0.011504532209578184,0.004808849269607548,-0.000359215105956175,-0.004196408858150414,0.009364473233714136
0.84,,,,,-0.00840733653390162,-0.004604286531849855,-0.0011105867031148474,-0.002692463298936918,-0.003565209086137034,-0.0009867703282950835,0.00011162871187435136,-0.002690067469716302,0.6206773649588403,0.6106717576872671,0.003534944570134827,0.00647066270143832,0.009372325911573123,0.007037677254917496,0.00027868150664405096,0.0020559671500115758,0.011604227056080154,0.01258987776917513,0.0001325299622491251,-0.0011181806753441004,0.7957633902582987,0.7979078259609659,-0.000677787816922016,-0.0014666478857451302,,,,,,,,,,,,
0.87,10.018023121756036,10.000834171370785,-0.010748366301390833,0.027937316686640158,-0.011209411302213508,-0.004466197380090353,-0.0011105867031148474,-0.0056326272190083074,-0.0022050522067685436,-0.000363821033868561,0.00011162871187435136,-0.001952859884774334,0.6262574667123215,0.6346356640142652,0.003534944570134827,-0.011913141872078476,0.006848216145559845,0.004207407022196334,0.00027868150664405096,0.0023621276167194605,0.015882983895116137,0.016467537303809964,0.0001325299622491251,-0.0007170833709429518,0.8046914826165836,0.7997220086717112,-0.000677787816922016,0.00564726176179457,,,,,,,,,,,,
0.8999999999999999,10.005746541518967,10.000809678916736,-0.010748366301390833,0.015685228903620615,-0.005750343791574417,-0.004183599778749603,-0.0011105867031148474,-0.0004561573097099661,0.007440050164573021,0.00024552285020806863,0.00011162871187435136,0.0070828986024906015,0.6705552759722626,0.6586205211809242,0.003534944570134827,0.008399810221203653,0.00870979063250383,0.011380293261918542,0.00027868150664405096,-0.0029491841360587616,0.0172147175585538,0.015155764724041962,0.0001325299622491251,0.0019264228722627149,0.7969446579093357,0.7994304646757788,-0.000677787816922016,-0.001808018949521081,0.045792515955605795,0.02313240731641323,0.0068733103943305045,0.01578679824486206,-0.005448110596489326,-0.016766394744034484,-0.009869456699525898,0.021187740847071056,0.006717093359037385,-0.001038903568033888,-0.004196408858150414,0.011952405785221687
0.9299999999999999,,,,,-0.01430496051617239,-0.004033014917798283,-0.0011105867031148474,-0.009161358895259259,-0.002068674510985042,0.0004829277414004629,0.00011162871187435136,-0.0026632309642598564,0.6975882463816243,0.6826311802063985,0.003534944570134827,0.01142212160509103,0.003266112038058191,0.0008482841667205362,0.00027868150664405096,0.0021391463646936036,0.005989177293675759,0.0027038966479947402,0.0001325299622491251,0.003152750683431894,0.7922641133170883,0.8012279866808167,-0.000677787816922016,-0.008286085546806347,,,,,,,,,,,,
0.96,9.971256891581302,10.000734451771159,-0.010748366301390833,-0.018729193888466476,-0.002007492622164365,-0.004027847831776565,-0.0011105867031148474,0.003130941912727048,-0.0046004917517844645,0.0007861059223683853,0.00011162871187435136,-0.005498226386027201,0.706861708278914,0.7066665448100817,0.003534944570134827,-0.00333978110130251,-0.0014769170662045866,-0.000701454098802481,0.00027868150664405096,-0.0010541444740461566,0.0031967355059241923,0.007095946703616007,0.0001325299622491251,-0.00403174115994094,0.8033909797033105,0.8011865131150003,-0.000677787816922016,0.0028822544052323072,,,,,,,,,,,,
0.99,,,,,-0.007165944986899162,-0.004034402827701733,-0.0011105867031148474,-0.0020209554560825815,0.004171605671211785,0.0009892357523146877,0.00011162871187435136,0.003070741207022746,0.7478160685744075,0.7306821069643674,0.003534944570134827,0.013599017039905266,0.0007880147732469665,-0.0011265064904679657,0.00027868150664405096,0.0016358397570708813,-0.0026926102882054133,0.0026311311237426213,0.0001325299622491251,-0.00545627137419716,0.7986112935909059,0.7999743991397955,-0.000677787816922016,-0.0006853177319675183,,,,,,,,,,,,
1.02,9.965692136718781,10.000616680766479,-0.010748366301390833,-0.0241761777463068,-0.01228641067479824,-0.004345888457601088,-0.0011105867031148474,-0.006829935514082302,-0.002126559673910028,0.0011264158795749601,0.00011162871187435136,-0.0033646042653593397,0.7658562387249399,0.7546703817368772,0.003534944570134827,0.007650912417927878,-0.011398915881170143,-0.015280163789315552,0.00027868150664405096,0.0036025664015013584,0.004652409938577615,0.0013529951483585486,0.0001325299622491251,0.0031668848279699413,0.7942597735886117,0.7993265422156051,-0.000677787816922016,-0.004388980810071309,0.045716749401235296,0.020822906558578547,0.0068733103943305045,0.01802053244832624,-0.004877688474539295,-0.02345097807713234,-0.009869456699525898,0.02844274630211894,-0.007214555556565392,-0.002393469452343384,-0.004196408858150414,-0.0006246772460715938
1.05,10.014917352828204,10.000543444575882,-0.010748366301390833,0.025122274553711917,0.0022183499295370477,-0.00448484259205939,-0.0011105867031148474,0.007813779224711286,-0.0003471233839772018,0.0012479919899894831,0.00011162871187435136,-0.0017067440858410364,0.8076643925850912,0.7786388532403747,0.003534944570134827,0.02549059477458155,0.001095808598854222,-0.0007930576741866403,0.00027868150664405096,0.0016101847663968114,0.002837489660128296,1.522524515261154e-05,0.0001325299622491251,0.0026897344527265594,0.7965320292748654,0.7986206904353269,-0.000677787816922016,-0.0014108733435394334,,,,,,,,,,,,
1.08,,,,,-0.007628243588974156,-0.00453263987120156,-0.0011105867031148474,-0.001985017014657748,-0.001198972083064135,0.0012162599634795157,0.00011162871187435136,-0.002526860758418002,0.8095560647838007,0.8026214707628161,0.003534944570134827,0.003399649450849765,-0.0016668487975975337,-0.003484588731900794,0.00027868150664405096,0.0015390584276592093,-0.0056612910688806466,-0.004916252998408297,0.0001325299622491251,-0.0008775680327214745,0.7949964511808002,0.8001003860615429,-0.000677787816922016,-0.004426147063820648,,,,,,,,,,,,
1.1099999999999999,10.00166414476514,10.0003755263002,-0.010748366301390833,0.012036984766331063,-0.010204289017459055,-0.004761489368558358,-0.0011105867031148474,-0.004332212945785849,-0.0030387027690057743,0.0013466707970750669,0.00011162871187435136,-0.004497002277955193,0.7864361370646644,0.8266199243325989,0.003534944570134827,-0.04371873183806934,-0.0094576327849487,-0.010308609709351138,0.00027868150664405096,0.0005722954177583882,0.003800276282804941,0.0018586302408880985,0.0001325299622491251,0.0018091160796677175,0.8008469029473398,0.7998313698374377,-0.000677787816922016,0.0016933209268241744,-0.00528787667050943,0.01739892658553255,0.0068733103943305045,-0.029560113650372484,-0.047142807248824685,-0.026471606354326584,-0.009869456699525898,-0.010801744194972202,0.01657538073305562,-0.003146198385916631,-0.004196408858150414,0.023917987977122666
1.14,,,,,-0.012473825900380046,-0.004785768120914025,-0.0011105867031148474,-0.006577471076351173,0.0024634332212628285,0.001442284799258342,0.00011162871187435136,0.0009095197101301348,0.8400096414048841,0.8506091324579401,0.003534944570134827,-0.014134435623190805,8.233712023941568e-05,0.0019424991540698319,0.00027868150664405096,-0.002138843540474467,0.0029116267045130777,-0.0013098132228410641,0.0001325299622491251,0.004088909965105017,0.7934304888288206,0.7994716323066889,-0.000677787816922016,-0.005363355660946253,,,,,,,,,,,,
1.17,9.97926135237657,10.000178186244321,-0.010748366301390833,-0.010168467566360695,-0.003270758836473199,-0.004663847898105367,-0.0011105867031148474,0.002503675764747015,-0.006079507775413629,0.0016380904549979647,0.00011162871187435136,-0.007829226942285945,0.8643390704950218,0.8745877208381483,0.003534944570134827,-0.013783594913261308,0.006652301901784312,0.0032068462038976524,0.00027868150664405096,0.0031667741912426092,0.004929469804368602,0.0032126024774767102,0.0001325299622491251,0.0015843373646427666,0.7938445921413927,0.7991499447060336,-0.000677787816922016,-0.004627564747718896,,,,,,,,,,,,
1.2,9.983065269123045,10.000067824276984,-0.010748366301390833,-0.006254188852548796,-0.0028139779075622485,-0.00446824529554446,-0.0011105867031148474,0.002764854091097059,-0.0066045381011532595,0.0015477771260132833,0.00011162871187435136,-0.008263943939040895,0.9178919435494812,0.8984702391658566,0.003534944570134827,0.015886759813489866,0.003851535845558773,0.00542744486314612,0.00027868150664405096,-0.0018545905242313974,-0.003952916782791282,-0.007949032572559411,0.0001325299622491251,0.0038635858275190044,0.7893598381592585,0.7933759715083304,-0.000677787816922016,-0.0033383455321498363,0.02177317627910623,0.015589403228251194,0.0068733103943305045,-0.0006895373434754667,-0.05690354541517252,-0.027393678627667624,-0.009869456699525898,-0.019640410087978993,-0.013407711848537486,-0.003955687245388931,-0.004196408858150414,-0.005255615744998142
1.23,,,,,-0.007972092897586233,-0.004197784702533625,-0.0011105867031148474,-0.00266372149193776,0.0023371770367428693,0.0015682795872162814,0.00011162871187435136,0.0006572687376522364,0.9145227945068231,0.9220592172496005,0.003534944570134827,-0.0110713673129123,0.015697554963852958,0.008611937000416523,0.00027868150664405096,0.006806936456792385,-0.0019791327094692427,-0.0017768711123176345,0.0001325299622491251,-0.00033479155940073307,0.7774131056446799,0.7800932591942674,-0.000677787816922016,-0.002002365732665461,,,,,,,,,,,,
1.26,10.001911101549712,9.999834764479717,-0.010748366301390833,0.0128247033713855,-0.0058182900064109415,-0.004034309539709291,-0.0011105867031148474,-0.0006733937635868026,0.005480880503862298,0.0018768157013040465,0.00011162871187435136,0.0034924360906839,0.9310482903759535,0.9451801997631524,0.003534944570134827,-0.01766685395733368,0.004116436041422759,0.0021854280758260344,0.00027868150664405096,0.0016523264589526734,0.010509290189533001,0.007917549992382426,0.0001325299622491251,0.0024592102349014497,0.7615880680833079,0.7625425169836253,-0.000677787816922016,-0.0002766610833953246,,,,,,,,,,,,
1.29,,,,,-0.00624360780202275,-0.004013682995887891,-0.0011105867031148474,-0.0011193381030200117,0.005292198732093706,0.00240188213247583,0.00011162871187435136,0.0027786878877435243,0.9693055580570881,0.9677187011845136,0.003534944570134827,-0.0019480876975604285,0.005601898170485339,-0.0019265061677044377,0.00027868150664405096,0.007249722831545726,0.01836469559484926,0.013887839551621997,0.0001325299622491251,0.004344326080978137,0.7403572422488913,0.7415455589837948,-0.000677787816922016,-0.0005105289179814745,,,,,,,,,,,,
1.3199999999999998,9.99008129204766,9.999584954501962,-0.010748366301390833,0.001244703847089527,-0.00017233521382556318,-0.004021227166532526,-0.0011105867031148474,0.004959478655821811,0.0027499700114152416,0.0026316800693266806,0.00011162871187435136,6.6612302142094225e-06,0.9783603883007048,0.9896074671313739,0.003534944570134827,-0.014782023400803876,-0.0034340188481420345,-0.0022902487106994927,0.00027868150664405096,-0.0014224516440865928,-0.0009539564580332113,0.0021223208982216035,0.0001325299622491251,-0.00320880731850394,0.7218500484904279,0.7192599259438615,-0.000677787816922016,0.0032679103634885454,0.024504684124090095,0.008126384559557956,0.0068733103943305045,0.009504989170201634,-0.04101937372501383,-0.03150117019295521,-0.009869456699525898,0.0003512531674672803,-0.06258845014334097,-0.004331139081674582,-0.004196408858150414,-0.054060902203515976
1.3499999999999999,9.973135708951695,9.999458144608017,-0.010748366301390833,-0.01557406935493162,0.006194512570932845,-0.003976679864206467,-0.0011105867031148474,0.01128177913825416,-0.00028102251027414685,0.002654066989730808,0.00011162871187435136,-0.003046718211879306,1.0198601834180523,1.010797587551819,0.003534944570134827,0.005527651296098368,0.0015980669184319275,0.00042504766501217555,0.00027868150664405096,0.000894337746775701,-0.000764570233042783,-0.0032183691775208795,0.0001325299622491251,0.0023212689822289714,0.6888942287951798,0.6950284040852822,-0.000677787816922016,-0.005456387473180333,,,,,,,,,,,,
1.38,,,,,-0.00264291170691735,-0.0040123818160244795,-0.0011105867031148474,0.002480056812221977,-0.002500436563179401,0.0022270280778431406,0.00011162871187435136,-0.004839093352896893,1.033419811666422,1.0313060584395988,0.003534944570134827,-0.0014211913433116586,-0.004351044900211068,-0.004702239167607963,0.00027868150664405096,7.251276075284398e-05,-0.01250035164055075,-0.018056415921571027,0.0001325299622491251,0.005423534318771154,0.6762919862178034,0.673542754721228,-0.000677787816922016,0.003427019313497447,,,,,,,,,,,,
1.41,10.009052764352848,9.999210195924661,-0.010748366301390833,0.020590934729578295,-0.0005918530843363424,-0.003973330022964738,-0.0011105867031148474,0.004492063641743244,-0.0005502629899061967,0.0019856588246147666,0.00011162871187435136,-0.0026475505263953147,1.0442773716912281,1.0511608612465944,0.003534944570134827,-0.01041843412550123,-0.0017289452443422174,0.002342547816341852,0.00027868150664405096,-0.00435017456732812,-0.011070875208215064,-0.00898242342294808,0.0001325299622491251,-0.00222098174751611,0.6495546557234493,0.6514750912180424,-0.000677787816922016,-0.0012426476776710486,-0.016110766400803576,0.00721716216097322,0.0068733103943305045,-0.0302012389561073,-0.015227985942936118,-0.03374083228961075,-0.009869456699525898,0.028382303046200527,-0.018376698270207586,-0.004267212416032521,-0.004196408858150414,-0.009913076996024651
1.44,,,,,-0.009830621757259114,-0.003963066361604373,-0.0011105867031148474,-0.004756968692539894,3.312818257216409e-05,0.0017986681597119691,0.00011162871187435136,-0.0018771686890141565,1.091452261123819,1.070346838066822,0.003534944570134827,0.017570478486862218,-0.007653971876409755,-0.0022423199343919713,0.00027868150664405096,-0.005690333448661835,-0.006178994122835563,-0.008286237333656939,0.0001325299622491251,0.0019747132485722504,0.6304702137648446,0.6290182899193164,-0.000677787816922016,0.0021297116624502095,,,,,,,,,,,,
1.47,10.021594855026043,9.998963141938,-0.010748366301390833,0.033380079389433555,0.002308846383356553,-0.003901293615691248,-0.0011105867031148474,0.007320726702162649,0.0034054989872666272,0.001609655735196558,0.00011162871187435136,0.0016842145401957179,1.0990354066010561,1.0889006958278644,0.003534944570134827,0.00659976620305682,0.005295401614403313,0.0024784915646126606,0.00027868150664405096,0.002538228543146601,-0.010339057008360544,-0.0085520007519823,0.0001325299622491251,-0.0019195862186273693,0.6044180148967558,0.6091493643057742,-0.000677787816922016,-0.004053561592096245,,,,,,,,,,,,
1.5,10.004066386442876,9.99883889177388,-0.010748366301390833,0.015975860970386387,-0.00726207943539294,-0.0036062128245664127,-0.0011105867031148474,-0.002545279907711679,-0.0029141592275793242,0.0014348593948776411,0.00011162871187435136,-0.004460647334331317,1.0981998921345413,1.1068585424392374,0.003534944570134827,-0.012193594874831029,0.009510447497616772,0.01139012783349391,0.00027868150664405096,-0.0021583618425211884,-0.012155346169658472,-0.007852228140298163,0.0001325299622491251,-0.004435647991609434,0.588459663370267,0.5892812637309306,-0.000677787816922016,-0.00014381254374147816,0.016139290599008767,0.004723608131141386,0.0068733103943305045,0.0045423720735368765,-0.04829654034562218,-0.03515719514900499,-0.009869456699525898,-0.003269888497091298,0.004920223425242606,-0.0042749755120996226,-0.004196408858150414,0.013391607795492644
1.53,,,,,-0.006280398599785653,-0.0033448013692805034,-0.0011105867031148474,-0.0018250105273903022,0.00954330940826732,0.001214837981990069,0.00011162871187435136,0.0082168427144029,1.1277938660487752,1.1242154581281367,0.003534944570134827,4.34633505036232e-05,0.006835279712951018,0.0058334537639679485,0.00027868150664405096,0.0007231444423390189,-0.00984033292216801,-0.009076928777063096,0.0001325299622491251,-0.0008959341073540392,0.5694826007260191,0.5691147044823883,-0.000677787816922016,0.0010456840605528046,,,,,,,,,,,,
1.56,10.032660926191623,9.99858582370458,-0.010748366301390833,0.04482346878843388,-0.002020123086357085,-0.003449182978555232,-0.0011105867031148474,0.0025396465953129947,0.007228137730173886,0.0012710321677316117,0.00011162871187435136,0.005845476850567922,1.1522756084827597,1.140942500988288,0.003534944570134827,0.007798162924336699,-0.005533508009649208,-0.008204311682486065,0.00027868150664405096,0.0023921221661928056,0.0036569497882893887,0.0014209990361134309,0.0001325299622491251,0.0021034207899268327,0.548321341917075,0.5474326988196916,-0.000677787816922016,0.0015664309143055635,,,,,,,,,,,,
1.5899999999999999,,,,,-0.0052453140229842205,-0.0033465298909796104,-0.0011105867031148474,-0.0007881974288897622,-0.0017481484692024227,0.0013621941209400745,0.00011162871187435136,-0.0032219713020168487,1.1672276961383714,1.1570379894152127,0.003534944570134827,0.006654762153023667,0.005283572601143634,0.007636108302458937,0.00027868150664405096,-0.0026312172079593537,0.003238596005727924,0.00020330755525276348,0.0001325299622491251,0.0029027584882260356,0.5276514217092656,0.5269267307754217,-0.000677787816922016,0.0014024787507659676,,,,,,,,,,,,
1.6199999999999999,10.025452787704534,9.998294177671179,-0.010748366301390833,0.037906976334745636,-0.00931739397529726,-0.0032953907922910197,-0.0011105867031148474,-0.004911416479891391,0.008703812478894643,0.001245497639301707,0.00011162871187435136,0.007346686127718584,1.1516301982316275,1.1725741440050497,0.003534944570134827,-0.024478890343557002,-0.0007030756823843416,-0.0022007046740110687,0.00027868150664405096,0.0012189474849826762,-0.0028921929136961743,-0.006460956005111957,0.0001325299622491251,0.0034362331291666577,0.5055928715723657,0.5099086461507157,-0.000677787816922016,-0.0036379867614280462,0.017287645472729547,0.000898462862078649,0.0068733103943305045,0.009515872216320394,-0.08410462822501112,-0.038746790666302204,-0.009869456699525898,-0.035488380859183016,-0.020083486587668523,-0.005497844738788933,-0.004196408858150414,-0.010389232990729177
1.65,9.970463199746375,9.998132587092144,-0.010748366301390833,-0.01692102104437892,-0.004745999302360383,-0.0031187262828411555,-0.0011105867031148474,-0.0005166863164043798,0.00183538346553556,0.0009909023567020725,0.00011162871187435136,0.000732852396959136,1.1816877188441548,1.1875796295987469,0.003534944570134827,-0.009426855324727059,0.010052239057750004,0.008426875338413378,0.00027868150664405096,0.001346682212692575,-0.012918342291163105,-0.010450183194970226,0.0001325299622491251,-0.0026006890584420045,0.4960078445974779,0.49157767426817545,-0.000677787816922016,0.005107958146224435,,,,,,,,,,,,
1.68,,,,,-0.005346638062624051,-0.002989158208460019,-0.0011105867031148474,-0.0012468931510491842,0.004659619767017771,0.0008631673661385619,0.00011162871187435136,0.0036848236890048573,1.2052548429581815,1.2020425675120485,0.003534944570134827,-0.00032266912400201594,0.0005433802965646448,0.0016545839310476212,0.00027868150664405096,-0.0013898851411270274,-0.00010188862773676845,-0.0046369277188440675,0.0001325299622491251,0.004402509128858174,0.47242020076679814,0.47372900704794946,-0.000677787816922016,-0.0006310184642292882,,,,,,,,,,,,
1.71,10.008060314687825,9.997804039554419,-0.010748366301390833,0.02100464143479706,-0.009723978435999966,-0.0027538238522502034,-0.0011105867031148474,-0.005859567880634916,-0.0024615860666298128,0.000894635508430941,0.00011162871187435136,-0.003467850286935105,1.2219405686273963,1.21599907607742,0.003534944570134827,0.0024065479798413385,0.008140751471434615,0.009773058271322584,0.00027868150664405096,-0.0019109883065320187,-0.0018071765487216174,-2.144170372873639e-05,0.0001325299622491251,-0.0019182648072420061,0.4545768087277915,0.45771318848427306,-0.000677787816922016,-0.002458591939559564,0.012348667608671196,-0.002395361780257668,0.0068733103943305045,0.007870718994598359,-0.041375176005112174,-0.038417119841002635,-0.009869456699525898,0.006911400535416361,-0.017582342791842013,-0.005729984551451445,-0.004196408858150414,-0.007655949382240154
1.74,,,,,-0.0021423696877514013,-0.0025009430172704405,-0.0011105867031148474,0.0014691600326338866,0.00016585686720242535,0.0009026458297176632,0.00011162871187435136,-0.0008484176743895893,1.2386442810826384,1.2294873139282876,0.003534944570134827,0.005622022584215813,0.002621120790344291,0.006697592521230036,0.00027868150664405096,-0.004355153237529796,-0.005899192733780559,-0.0012945572778751047,0.0001325299622491251,-0.004737165418154579,0.44385678266752504,0.4424781372279801,-0.000677787816922016,0.002056433256466967,,,,,,,,,,,,
1.77,9.980623811488421,9.997469331134951,-0.010748366301390833,-0.006097153345140058,-0.005257953307578719,-0.0022562672969157482,-0.0011105867031148474,-0.001891099307548123,-0.00746902330436191,0.0006346951873381634,0.00011162871187435136,-0.008215347203574424,1.263592718570245,1.2425159007179207,0.003534944570134827,0.017541873282189337,0.007568413569863904,0.007651222118001603,0.00027868150664405096,-0.00036149005478175065,-0.016938890136313018,-0.01098269282858143,0.0001325299622491251,-0.006088727269980713,0.4341056322146571,0.427053653878889,-0.000677787816922016,0.007729766152690086,,,,,,,,,,,,
1.7999999999999998,10.01194127572402,9.997306060913354,-0.010748366301390833,0.025383581112055777,-0.0037489957465426165,-0.0018371987596945694,-0.0011105867031148474,-0.0008012102837332,0.003642894036621396,0.0002970463287201852,0.00011162871187435136,0.003234218996026859,1.2573695033305057,1.2550787154333207,0.003534944570134827,-0.0012441566729500407,0.016784496945340316,0.015692730153280682,0.00027868150664405096,0.0008130852854155803,-0.012618292235861932,-0.011574474394363508,0.0001325299622491251,-0.001176347803747549,0.4075215327805699,0.41141225507611884,-0.000677787816922016,-0.003212934478626897,-0.020411994405591206,-0.0013233794265266347,0.0068733103943305045,-0.025961925373395076,-0.04884720663654603,-0.03768745290688534,-0.009869456699525898,-0.0012902970301347926,-0.03986487460284204,-0.0053154520531616956,-0.004196408858150414,-0.030353013691529932
1.8299999999999998,,,,,-0.0024023521707546985,-0.0016675572521820392,-0.0011105867031148474,0.00037579178454218783,-0.0030821501810373688,0.00011645705029295073,0.00011162871187435136,-0.003310235943204671,1.272911816314536,1.2671919472254176,0.003534944570134827,0.0021849245189836026,-0.00112048107847743,0.0006508394051490431,0.00027868150664405096,-0.002050001990270524,-0.005063682890010066,-0.0052904952083971234,0.0001325299622491251,9.428235613793153e-05,0.3977590312958843,0.39702668332137214,-0.000677787816922016,0.0014101357914341947,,,,,,,,,,,,
1.8599999999999999,9.976719012869482,9.996992837540583,-0.010748366301390833,-0.009525458369709416,0.0013718819400428705,-0.0015527547701918998,-0.0011105867031148474,0.004035223413349618,0.004833222211353961,2.323094884237875e-05,0.00011162871187435136,0.004698362550637231,1.2826851516862163,1.2788707019365342,0.003534944570134827,0.00027950517954716684,0.007959703019647262,0.005052584465091921,0.00027868150664405096,0.0026284370479112895,-4.416464077812822e-05,-0.0034336166445788634,0.0001325299622491251,0.00325692204155161,0.3861023764006085,0.3824613325415374,-0.000677787816922016,0.004318831675993091,,,,,,,,,,,,
1.89,,,,,-0.010061831765006583,-0.0014857682182141119,-0.0011105867031148474,-0.007465476843677624,-0.007202668301318686,-0.00014097016874226043,0.00011162871187435136,-0.0071733268444507765,1.293369118097737,1.2901457030627235,0.003534944570134827,-0.00031152953512151953,0.0006706855708210262,0.0007560487328703777,0.00027868150664405096,-0.00036404466869340257,-0.007797938745825869,-0.006147571583143431,0.0001325299622491251,-0.0017828971249315626,0.36906635815924305,0.36998614366717036,-0.000677787816922016,-0.00024199769100532868,,,,,,,,,,,,
1.92,9.981217992271548,9.996683100166065,-0.010748366301390833,-0.004716741593126543,-0.008438895017707735,-0.0013836537386437975,-0.0011105867031148474,-0.005944654575949089,-0.003486919346352257,-0.0005757776942645343,0.00011162871187435136,-0.003022770363962074,1.306580890359756,1.3010352964410794,0.003534944570134827,0.0020106493485417733,0.006161972293496644,0.00443014757979403,0.00027868150664405096,0.001453143207058563,-0.02069906512000821,-0.01555477722795752,0.0001325299622491251,-0.005276817854299815,0.3599027130740726,0.35679676477651157,-0.000677787816922016,0.0037837361144830452,0.009817745372088599,-0.0015850868504738705,0.0068733103943305045,0.004529521828231965,-0.04482537902188694,-0.03846534995267365,-0.009869456699525898,0.00350942763031261,-0.0067800000647472835,-0.00539789106304783,-0.004196408858150414,0.0028142998564509598
1.95,9.96526252411262,9.996520733474854,-0.010748366301390833,-0.020509843060845367,-0.004739980363536048,-0.0012004426769292031,-0.0011105867031148474,-0.002428950983491997,-0.0037482384298728167,-0.0006165507914501767,0.00011162871187435136,-0.0032433163502969915,1.2935860306597864,1.311523971710736,0.003534944570134827,-0.021472885621084552,0.014358698636843789,0.0070354627856421825,0.00027868150664405096,0.007044554344557555,0.0015716490249544838,0.000588726135481582,0.0001325299622491251,0.0008503929272237768,0.3416087404800208,0.34325593762947276,-0.000677787816922016,-0.0009694093325299336,,,,,,,,,,,,
1.98,,,,,0.009808572348561757,-0.0008989945323931714,-0.0011105867031148474,0.011818153584069777,-0.004829477988805065,-0.0005002730812950773,0.00011162871187435136,-0.004440833619384339,1.328296595521971,1.3216220857375944,0.003534944570134827,0.0031395652142416357,0.009442665493585706,0.011144891909698845,0.00027868150664405096,-0.001980907922757189,0.0010326355694383507,0.003386250229079141,0.0001325299622491251,-0.0024861446218899155,0.33186382656863306,0.3307309687943199,-0.000677787816922016,0.0018106455912351603,,,,,,,,,,,,
2.01,10.004431150929477,9.9961891900252,-0.010748366301390833,0.01899032720566695,-0.008125265234926337,-0.0056605758186067945,-0.0011105867031148474,-0.0013541027132046941,0.014847964651724528,0.009307050618430068,0.00011162871187435136,0.005429285321420108,1.3323190819604116,1.3339049425073135,0.003534944570134827,-0.0051208051170367865,-0.2082343165588396,-0.21294536660368985,0.00027868150664405096,0.004432368538206205,0.29374662596151113,0.2896961946856452,0.0001325299622491251,0.0039179013136168145,0.47850961305672846,0.4790496115713221,-0.000677787816922016,0.0001377893023283921,-0.0737870078117366,-0.06698830771661286,0.0068733103943305045,-0.013672010489454241,-0.08309608004559366,-0.07234957278983242,-0.009869456699525898,-0.0008770505562353399,0.002874027344918281,-0.005896063731065667,-0.004196408858150414,0.012966499934134361
2.04,,,,,-0.018909195454781483,-0.012346702571666146,-0.0011105867031148474,-0.00545190618000049,0.01912812558048463,0.019985750881411413,0.00011162871187435136,-0.000969254012801135,1.3487712398833966,1.3498179003521455,0.003534944570134827,-0.004581605038883876,-0.22101836570763156,-0.2189403590476291,0.00027868150664405096,-0.002356688166646522,0.3125054208669631,0.3118674500677472,0.0001325299622491251,0.0005054408369667907,0.5897396032116766,0.5815199965280501,-0.000677787816922016,0.008897394500548574,,,,,,,,,,,,
2.07,9.999703579328301,9.995974811534028,-0.010748366301390833,0.014477134095663013,-0.021995830311242283,-0.018061326266090028,-0.0011105867031148474,-0.0028239173420374062,0.029496351375168203,0.029321824566300947,0.00011162871187435136,6.289809699290578e-05,1.3949130658737703,1.368218324389499,0.003534944570134827,0.02315979691413637,-0.18330603093329606,-0.18564747431332965,0.00027868150664405096,0.002062761873389536,0.27087105708629033,0.2675782437884263,0.0001325299622491251,0.0031602833356149324,0.6462313598139218,0.6497882850212432,-0.000677787816922016,-0.0028791373903993673,,,,,,,,,,,,
2.1,9.963827799637826,9.995933900136672,-0.010748366301390833,-0.02135773419745442,-0.014797113799226753,-0.02249523666258968,-0.0011105867031148474,0.008808709566477774,0.041502633742297644,0.037347606529471555,0.00011162871187435136,0.004043398500951738,1.3847374613709353,1.3883482829330616,0.003534944570134827,-0.007145766132261147,-0.15275342303917924,-0.15217971698320648,0.00027868150664405096,-0.0008523875626168275,0.22260921050502744,0.22324120172235995,0.0001325299622491251,-0.000764521179581656,0.700887959770297,0.6989387956850934,-0.000677787816922016,0.002626951902125749,-0.12350221520591834,-0.12461571671427898,0.0068733103943305045,-0.005759808885969863,-0.10702831114965328,-0.10632662658638718,-0.009869456699525898,0.009167772136259798,-0.017974236135090735,-0.007586740758150379,-0.004196408858150414,-0.006191086518789943
2.13,,,,,-0.032300836352267076,-0.02561144908492574,-0.0011105867031148474,-0.005578800564226487,0.044421439531183604,0.04382455747573877,0.00011162871187435136,0.0004852533435704819,1.387716399513097,1.4096988761162157,0.003534944570134827,-0.02551742117325369,-0.11364682984827049,-0.11637853329639189,0.00027868150664405096,0.002453021941477359,0.17695421010188198,0.17220000745551564,0.0001325299622491251,0.0046216726841172085,0.7329349418888998,0.7312192045333761,-0.000677787816922016,0.0023935251724458537,,,,,,,,,,,,
2.16,10.00655217571699,9.996009287023481,-0.010748366301390833,0.021291254994899637,-0.02811260211273437,-0.02778219000724569,-0.0011105867031148474,0.0007801745976261638,0.046633663088708595,0.048519773194155125,0.00011162871187435136,-0.0019977388173208835,1.4070500380407798,1.4319459076258374,0.003534944570134827,-0.02843081415519258,-0.09566659940284222,-0.09696815932888585,0.00027868150664405096,0.0010228784193995768,0.11921903271814287,0.11504344329955025,0.0001325299622491251,0.004043059456343493,0.7529524475268207,0.7565970245374192,-0.000677787816922016,-0.0029667891936764204,,,,,,,,,,,,
2.19,,,,,-0.028255710358298203,-0.02926531861650039,-0.0011105867031148474,0.002120194961317036,0.04482953279687291,0.051943579166041864,0.00011162871187435136,-0.007225675081043303,1.440583323181877,1.4548431223941858,0.003534944570134827,-0.017794743782443775,-0.08370449749766813,-0.07941315838249707,0.00027868150664405096,-0.004570020621815105,0.07563096571477791,0.07526321494575477,0.0001325299622491251,0.00023522080677402206,0.7686752754465669,0.7729199094969177,-0.000677787816922016,-0.003566846233428725,,,,,,,,,,,,
2.2199999999999998,9.958462269121386,9.996268901185802,-0.010748366301390833,-0.027058265763026026,-0.03545120554473295,-0.03030250084520647,-0.0011105867031148474,-0.0040381179964116345,0.05798320364988056,0.054614347253964635,0.00011162871187435136,0.0032572276840415757,1.4678479410694898,1.4782052485536532,0.003534944570134827,-0.013892252054298344,-0.07108863043344488,-0.07069572389277697,0.00027868150664405096,-0.0006715880473119545,0.06028804907540012,0.052412330923380504,0.0001325299622491251,0.007743188189770491,0.7859320696839304,0.7862927933813908,-0.000677787816922016,0.0003170641194616012,-0.18267501705310407,-0.18273335085585032,0.0068733103943305045,-0.006814976591584256,-0.14295800939037412,-0.14640219645419628,-0.009869456699525898,0.013313643763348077,-0.02665597296501042,-0.008449648735017454,-0.004196408858150414,-0.014009915371842553
2.25,10.004371091594242,9.99647029649449,-0.010748366301390833,0.018649161401143838,-0.03276026595799806,-0.030881291895785257,-0.0011105867031148474,-0.0007683873590979533,0.049463831692853975,0.05662239819986681,0.00011162871187435136,-0.007270195218887185,1.5164653385476843,1.5019433576451604,0.003534944570134827,0.0109870363323889,-0.05388198790488686,-0.05713616348686666,0.00027868150664405096,0.0029754940753357537,0.028570441931782382,0.03110017600381701,0.0001325299622491251,-0.00266226403428375,0.7936629808656908,0.7966864935375229,-0.000677787816922016,-0.0023457248549100056,,,,,,,,,,,,
2.28,,,,,-0.03107640738889171,-0.03096578078333634,-0.0011105867031148474,0.0009999600975594742,0.05151008068299766,0.058125218348469954,0.00011162871187435136,-0.006726766377346647,1.5341175389621504,1.525929296277269,0.003534944570134827,0.004653298114746517,-0.043270389817993145,-0.04295626362657085,0.00027868150664405096,-0.0005928076980663435,0.009223717936217382,0.015474232424925249,0.0001325299622491251,-0.006383044450956991,0.7984187798356533,0.801972106648456,-0.000677787816922016,-0.0028755389958805126,,,,,,,,,,,,
2.31,9.99416802180311,9.997000118026728,-0.010748366301390833,0.007916270077773558,-0.03408227489852617,-0.030844411741485445,-0.0011105867031148474,-0.0021272764539258834,0.06872785594316122,0.05863777729892572,0.00011162871187435136,0.009978449932361154,1.5570764335210334,1.5501162765306606,0.003534944570134827,0.0034252124202379048,-0.045253912059319654,-0.042394806731724785,0.00027868150664405096,-0.0031377868342389193,-0.01864237105469839,-0.01587409745584969,0.0001325299622491251,-0.0029008035610978214,0.8109457405386559,0.8078855513884942,-0.000677787816922016,0.0037379769670838167,-0.19767211398273138,-0.229967631643227,0.0068733103943305045,0.02542220726616512,-0.17518413025649757,-0.17679681504422481,-0.009869456699525898,0.011482141487253154,-0.03202769204772056,-0.0088282046162455,-0.004196408858150414,-0.019003078573324644
2.34,,,,,-0.039409843481075624,-0.030531543397473104,-0.0011105867031148474,-0.007767713380487671,0.06038836479926343,0.05897151625082353,0.00011162871187435136,0.0013052198365655512,1.5764643694977167,1.5745062954448255,0.003534944570134827,-0.001576870517243587,-0.028783261808131132,-0.033745299785282214,0.00027868150664405096,0.004683356470507032,-0.0208866284003929,-0.018767905592346253,0.0001325299622491251,-0.0022512527702957708,0.8094392504998512,0.815053112917002,-0.000677787816922016,-0.004936074600228743,,,,,,,,,,,,
2.37,9.984750540477032,9.997693201543132,-0.010748366301390833,-0.0021942947647091275,-0.03794396624115698,-0.030214899394512607,-0.0011105867031148474,-0.006618480143529526,0.06702328358880746,0.05898847566763443,0.00011162871187435136,0.007923179209298675,1.5803968646697697,1.5990925949921957,0.003534944570134827,-0.022230674892560972,-0.028802571857180492,-0.03862028161262335,0.00027868150664405096,0.009539028248798808,-0.03030388205191173,-0.028705059911907707,0.0001325299622491251,-0.0017313521022531437,0.8250607182942578,0.8204569627721799,-0.000677787816922016,0.00528154333899988,,,,,,,,,,,,
2.4,10.003641029037803,9.998090630864725,-0.010748366301390833,0.016298764474469322,-0.029861252446713865,-0.029579608776872046,-0.0011105867031148474,0.0008289430332730286,0.06709115679603264,0.05851997144145216,0.00011162871187435136,0.008459556642706124,1.6106105746936397,1.623844249660256,0.003534944570134827,-0.016768619536751354,-0.025738900137467508,-0.022195917935437553,0.00027868150664405096,-0.003821663708674008,-0.045572494163570114,-0.04411249108717401,0.0001325299622491251,-0.0015925330386452297,0.8302493074724578,0.8250483154692131,-0.000677787816922016,0.005878779820166772,-0.2928419858398009,-0.2783320559958093,0.0068733103943305045,-0.021383240238322103,-0.21447964012709722,-0.20492211468136662,-0.009869456699525898,0.0003119312537953185,-0.028328636864862096,-0.008640186067526093,-0.004196408858150414,-0.01549204193918559
2.4299999999999997,,,,,-0.030212154769127014,-0.028856750619371763,-0.0011105867031148474,-0.00024481744664040363,0.054027978159543084,0.05779937809869651,0.00011162871187435136,-0.0038830286510277783,1.672073668215631,1.64876028833166,0.003534944570134827,0.01977843531383592,-0.020796967474258455,-0.024989353271527105,0.00027868150664405096,0.003913704290624599,-0.048437557337377465,-0.05004591394915399,0.0001325299622491251,0.0014758266495273984,0.8330826923619726,0.8310578737731604,-0.000677787816922016,0.002702606405734296,,,,,,,,,,,,
2.46,9.959557484751835,9.99896036385863,-0.010748366301390833,-0.028654512805405444,-0.020810687708866876,-0.028385288319519475,-0.0011105867031148474,0.008685187313767448,0.05289810669221347,0.05683218009759017,0.00011162871187435136,-0.004045702117251052,1.6995169801380507,1.673829509048951,0.003534944570134827,0.02215252651896484,-0.028297171385922096,-0.03489230785414941,0.00027868150664405096,0.006316454961583264,-0.05490490042332291,-0.05693108892836086,0.0001325299622491251,0.0018936585427888181,0.8368394827785668,0.8350894134203719,-0.000677787816922016,0.002427857175116976,,,,,,,,,,,,
2.4899999999999998,,,,,-0.027819468860128167,-0.027730960803974636,-0.0011105867031148474,0.0010220786469613168,0.06318790299378947,0.055705509802161934,0.00011162871187435136,0.007370764479753186,1.6970490608977222,1.6990134598243154,0.003534944570134827,-0.005499343496728138,-0.01387126729502211,-0.02097187101682177,0.00027868150664405096,0.006821922215155605,-0.059465101980234004,-0.06185743065513508,0.0001325299622491251,0.0022597987126519534,0.8406507611919768,0.8384760467211629,-0.000677787816922016,0.0028525022877359213,,,,,,,,,,,,
2.52,10.010049159827497,9.999907977743389,-0.010748366301390833,0.020889548385499487,-0.02486056091371938,-0.027175493219143476,-0.0011105867031148474,0.0034255190085389427,0.05135353674716394,0.054476604588324484,0.00011162871187435136,-0.0032346965530348987,1.7071952497895158,1.7243474508758245,0.003534944570134827,-0.02068714565644371,-0.03513997165821246,-0.030635705895135062,0.00027868150664405096,-0.004782947269721449,-0.06312839861791576,-0.0636246225762831,0.0001325299622491251,0.0003636939961182196,0.8485445762744435,0.845010917235037,-0.000677787816922016,0.0042114468563285495,-0.3461336245330634,-0.3374686572081021,0.0068733103943305045,-0.015538277719291787,-0.2522537427659872,-0.24284201758942905,-0.009869456699525898,0.00045773152296772426,0.004809542480222988,-0.008653871948635034,-0.004196408858150414,0.017659823287008436
2.55,9.973908314914352,10.000408768055594,-0.010748366301390833,-0.015752086839852436,-0.027401180019880515,-0.026666809053968343,-0.0011105867031148474,0.0003762157372026779,0.054679203989311004,0.05338644925538549,0.00011162871187435136,0.0011811260220511556,1.7565442280530743,1.7498336891940625,0.003534944570134827,0.003175594288876984,-0.026966354178578896,-0.027114502031629132,0.00027868150664405096,-0.000130533653593815,-0.05793636545468599,-0.05936264924717107,0.0001325299622491251,0.0012937538302359572,0.8496763516109833,0.8491837009609325,-0.000677787816922016,0.0011704384669728486,,,,,,,,,,,,
2.58,,,,,-0.024045650634899267,-0.02590490946623003,-0.0011105867031148474,0.0029698455344456124,0.04882749350961636,0.0521680145847081,0.00011162871187435136,-0.0034521497869660876,1.7660869088259321,1.7753114136426218,0.003534944570134827,-0.012759449386824596,-0.01999460542137673,-0.016203958993786512,0.00027868150664405096,-0.004069327934234273,-0.06707707250856572,-0.06322190714733494,0.0001325299622491251,-0.003987695323479891,0.8452219578365597,0.8448556591127798,-0.000677787816922016,0.0010440865407019288,,,,,,,,,,,,
2.61,9.985426375080806,10.001461067325002,-0.010748366301390833,-0.00528632594280525,-0.030140874314678868,-0.025178249089417015,-0.0011105867031148474,-0.0038520385221470044,0.04877969699098172,0.05092274224918514,0.00011162871187435136,-0.002254673970077777,1.8327910047121017,1.8005534649942296,0.003534944570134827,0.028702595147737073,-0.020148832365953023,-0.020609794584827812,0.00027868150664405096,0.00018228071223073513,-0.06279477307746055,-0.062762728092258,0.0001325299622491251,-0.00016457494745166876,0.8333986605723335,0.834217252468232,-0.000677787816922016,-0.00014080407897639456,-0.37791221866471125,-0.37951888708048753,0.0068733103943305045,-0.0052666419785542245,-0.29024257701714945,-0.26721598119083206,-0.009869456699525898,-0.01315713912679153,0.018499296722635405,-0.008060438153800462,-0.004196408858150414,0.03075614373458628
2.6399999999999997,,,,,-0.024539154578666025,-0.024504494764969742,-0.0011105867031148474,0.0010759268894185642,0.0494450295671862,0.04952104606205321,0.00011162871187435136,-0.00018764520674135893,1.8430194518936036,1.8254141921916203,0.003534944570134827,0.014070315131848433,-0.02100849554926119,-0.01889895593465585,0.00027868150664405096,-0.0023882211212493914,-0.06925463167592749,-0.06704932215250613,0.0001325299622491251,-0.0023378394856704778,0.8187711080134675,0.819613735624484,-0.000677787816922016,-0.00016483979409441353,,,,,,,,,,,,
2.67,9.995646820938417,10.002552946203624,-0.010748366301390833,0.003842241036183966,-0.026685434897593154,-0.02384097186105727,-0.0011105867031148474,-0.0017338763334210378,0.04955775587235425,0.04816712828777092,0.00011162871187435136,0.0012789988727089766,1.8745230641910673,1.849755161202558,0.003534944570134827,0.0212329584183743,-0.02035198475368909,-0.01715496396977439,0.00027868150664405096,-0.00347570229055875,-0.0630343076370901,-0.06451656847932909,0.0001325299622491251,0.0013497308799898728,0.7999227602946772,0.8002571448702225,-0.000677787816922016,0.00034340324137678644,,,,,,,,,,,,
