t,sensor_depth_z,sensor_depth_z_true,sensor_depth_z_bias,sensor_depth_z_noise,sensor_attitude_roll,sensor_attitude_roll_true,sensor_attitude_roll_bias,sensor_attitude_roll_noise,sensor_attitude_pitch,sensor_attitude_pitch_true,sensor_attitude_pitch_bias,sensor_attitude_pitch_noise,sensor_attitude_yaw,sensor_attitude_yaw_true,sensor_attitude_yaw_bias,sensor_attitude_yaw_noise,sensor_gyro_p,sensor_gyro_p_true,sensor_gyro_p_bias,sensor_gyro_p_noise,sensor_gyro_q,sensor_gyro_q_true,sensor_gyro_q_bias,sensor_gyro_q_noise,sensor_gyro_r,sensor_gyro_r_true,sensor_gyro_r_bias,sensor_gyro_r_noise,sensor_dvl_u,sensor_dvl_u_true,sensor_dvl_u_bias,sensor_dvl_u_noise,sensor_dvl_v,sensor_dvl_v_true,sensor_dvl_v_bias,sensor_dvl_v_noise,sensor_dvl_w,sensor_dvl_w_true,sensor_dvl_w_bias,sensor_dvl_w_noise
0.0,10.0011363457702,10.0,-0.010748366301390833,0.01188471207159045,0.000893368061619727,0.0,-0.0011105867031148474,0.0020039547647345743,0.008489237192353281,0.0,0.00011162871187435136,0.00837760848047893,0.02906333365704014,0.0,0.003534944570134827,0.025528389086905315,0.002682466317973321,0.0,0.00027868150664405096,0.0024037848113292698,-0.002790216398335552,0.0,0.0001325299622491251,-0.002922746360584677,0.001382834218563641,0.0,-0.000677787816922016,0.002060622035485657,0.005599130371414598,0.0,0.0068733103943305045,-0.0012741800229159068,-0.011242824633143883,0.0,-0.009869456699525898,-0.0013733679336179858,-0.03729849219041745,0.0,-0.004196408858150414,-0.03310208333226703
0.03,,,,,-0.002179727137075327,-1.5124684999978655e-05,-0.0011105867031148474,-0.0010540157489605008,-0.005378418221637689,-0.0007744202932715716,0.00011162871187435136,-0.004715626640240469,0.005185595030975099,0.004032258172760983,0.003534944570134827,-0.0023816077119207103,-0.0005936893412666099,-0.0009395540713502045,0.00027868150664405096,6.71832234395436e-05,-0.031218097541629845,-0.028387979828220295,0.0001325299622491251,-0.0029626476756586745,0.2497304628796039,0.2535300751860242,-0.000677787816922016,-0.0031218244894983065,,,,,,,,,,,,
0.06,10.000979368309403,10.000016424846148,-0.010748366301390833,0.011711309764646207,-0.003000024627269027,0.00016167692978719117,-0.0011105867031148474,-0.002051114853941371,0.0019421005826532407,-0.001213799690651829,0.00011162871187435136,0.003044271561430718,0.019636968441932908,0.014434470466872629,0.003534944570134827,0.0016675534049254538,0.018118621558916213,0.009378147997462206,0.00027868150664405096,0.008461792054809954,-0.017615308714192833,-0.010565012760356467,0.0001325299622491251,-0.007182825916085492,0.42570920255826605,0.42895203757133515,-0.000677787816922016,-0.002565047196147112,,,,,,,,,,,,
0.09,,,,,-0.0004435495552673948,0.0003749186206638555,-0.0011105867031148474,0.0002921185271835971,-0.009719139124105125,-0.0020546601935542697,0.00011162871187435136,-0.007776107642425207,0.03175721183620856,0.029218266394892112,0.003534944570134827,-0.0009959991288183779,0.012542933898801857,0.006199357551379283,0.00027868150664405096,0.006064894840778523,-0.019374580188235565,-0.028529244589305502,0.0001325299622491251,0.009022134438820814,0.5464108501792859,0.5489292131829376,-0.000677787816922016,-0.001840575186729637,,,,,,,,,,,,
0.12,9.990585100459574,10.00006530374223,-0.010748366301390833,0.0012681630187348864,0.0004637499674230714,0.0005247540129733608,-0.0011105867031148474,0.001049582657564558,0.0013280160207933185,-0.0030665012652830725,0.00011162871187435136,0.0042828885742020395,0.04645949754635618,0.04697140417292722,0.003534944570134827,-0.00404685119670587,0.0009977710187294396,0.006028092004970459,0.00027868150664405096,-0.00530900249288507,-0.028431699858508564,-0.031164988020646284,0.0001325299622491251,0.0026007581998885973,0.6310550264732879,0.6293719709387401,-0.000677787816922016,0.0023608433514698624,0.003023831862556234,0.008488023611281679,0.0068733103943305045,-0.01233750214305595,0.014651100348775297,0.0027958378479647395,-0.009869456699525898,0.021724719200336456,-0.03579284895997807,0.0007608956964154669,-0.004196408858150414,-0.032357335798243125
0.15,10.021599380273774,10.000096111124902,-0.010748366301390833,0.03225163545026159,3.160703415701631e-05,0.0005221876567382822,-0.0011105867031148474,0.0006200060805335815,-0.001372797562026156,-0.0035413576259366586,0.00011162871187435136,0.0020569313520361512,0.07538999645971946,0.06675868484178782,0.003534944570134827,0.005096367047796815,-0.0009489866703307102,0.0006458425953636392,0.00027868150664405096,-0.0018735107723384004,-0.007484778741200792,-0.01065238851005728,0.0001325299622491251,0.003035079806607363,0.6832047493280253,0.6860317033064138,-0.000677787816922016,-0.0021491661614664722,,,,,,,,,,,,
0.18,,,,,-0.00047299163271129305,0.0004446482180191502,-0.0011105867031148474,0.00019294685238440413,0.0013027446852725308,-0.003801499865357716,0.00011162871187435136,0.004992615838755895,0.09708448385563657,0.08791352605267067,0.003534944570134827,0.005636013232831084,0.006132550643667437,-0.0001543904190052565,0.00027868150664405096,0.006008259556028643,-0.0021487419941897358,-0.006936408211956556,0.0001325299622491251,0.004655136255517695,0.7195287947373964,0.7218943481611001,-0.000677787816922016,-0.0016877656067816656,,,,,,,,,,,,
0.21,9.992594381025018,10.000177123698165,-0.010748366301390833,0.0031656236282435486,0.001144813721397281,0.00027149864237241417,-0.0011105867031148474,0.0019839017821397143,-0.003221810672081786,-0.004161313206882511,0.00011162871187435136,0.000827873822926374,0.09568136824657278,0.10997949483373892,0.003534944570134827,-0.017833071157300977,-0.006036211567818266,-0.004034534508453932,0.00027868150664405096,-0.0022803585660083844,-0.016107223990978702,-0.011391539390362606,0.0001325299622491251,-0.004848214562865222,0.7449923778334367,0.7474522208510914,-0.000677787816922016,-0.0017820552007326216,0.00503096645027816,0.008662225931487452,0.0068733103943305045,-0.010504569875539797,-0.010228904262576756,0.003104770517633521,-0.009869456699525898,-0.003464218080684379,0.003301551213225254,0.0015062442949569596,-0.004196408858150414,0.005991715776418709
0.24,,,,,0.009345941342147236,0.0001088308062047183,-0.0011105867031148474,0.010347697239057365,-0.0035233808968896533,-0.004577856839540484,0.00011162871187435136,0.0009428472307764795,0.14098412467064528,0.13267941206654665,0.003534944570134827,0.004769768033963789,-0.004130460669989784,-0.0010748321529586036,0.00027868150664405096,-0.003334310023675231,-0.005013344501856957,-0.01287925033961745,0.0001325299622491251,0.007733375875511368,0.7645513798988177,0.7647045427163943,-0.000677787816922016,0.0005246249993454522,,,,,,,,,,,,
0.27,9.978523282211397,10.000268843610053,-0.010748366301390833,-0.010997195097266342,0.004680074780656745,-6.392206706662407e-05,-0.0011105867031148474,0.005854583550838217,0.000415450241075894,-0.004911191773789625,0.00011162871187435136,0.005215013302991168,0.15590281929026073,0.15581808009279863,0.003534944570134827,-0.0034502053726727256,-0.0017262896656563683,-0.002261051843255546,0.00027868150664405096,0.00025608067095512707,-0.010435702350048658,-0.0095595052042155,0.0001325299622491251,-0.0010087271080822834,0.7755792932773738,0.7770245925488658,-0.000677787816922016,-0.0007675114545698488,,,,,,,,,,,,
0.3,9.97630651761692,10.000316339944666,-0.010748366301390833,-0.013261456026355749,-0.001860566905684027,-0.00031897752139764535,-0.0011105867031148474,-0.0004310026811715342,-0.014664126629441387,-0.00511052160695602,0.00011162871187435136,-0.00966523373435972,0.19341000621297275,0.17926475108361783,0.003534944570134827,0.010610310559220081,-0.006463888714311208,-0.005125617838676861,0.00027868150664405096,-0.001616952382278398,0.0014280299521254739,-0.00539678611864415,0.0001325299622491251,0.0066922861085204986,0.7824730964376552,0.7854912660353229,-0.000677787816922016,-0.0023403817807457093,0.04570871334199453,0.011460702632009458,0.0068733103943305045,0.02737470031565457,-0.002555916721005195,0.003493040521775516,-0.009869456699525898,0.0038204994567451866,-0.02009408327920642,0.0014876917846659494,-0.004196408858150414,-0.017385366205721956
0.32999999999999996,,,,,-0.0042898980772731864,-0.0004569909263407723,-0.0011105867031148474,-0.0027223204478175663,-0.011326747372515211,-0.005142472812852628,0.00011162871187435136,-0.0062959032715369356,0.17481655444356675,0.20293787843611355,0.003534944570134827,-0.031656268562681646,-0.003444898515334676,0.001987812731317472,0.00027868150664405096,-0.005711392753296199,-0.006187110576078923,-0.0005477452406172784,0.0001325299622491251,-0.00577189529771077,0.7857834644462656,0.7922393662647292,-0.000677787816922016,-0.005778114001541601,,,,,,,,,,,,
0.36,9.974644279031402,10.000401315509157,-0.010748366301390833,-0.015008670176363408,-0.006563640330198451,-0.00012552627841433406,-0.0011105867031148474,-0.00532752734866927,0.0006824612105378221,-0.004945750652995962,0.00011162871187435136,0.005516583151659433,0.2460346610694698,0.22675796534237724,0.003534944570134827,0.015741751156957737,0.021446450832616912,0.02069120974247498,0.00027868150664405096,0.00047655958349787994,0.00968555023635178,0.006624168847270989,0.0001325299622491251,0.0029288514268316656,0.7951087247574546,0.7955313025483213,-0.000677787816922016,0.0002552100260554583,,,,,,,,,,,,
0.39,,,,,0.004825162388541873,-8.489155852053898e-06,-0.0011105867031148474,0.005944238247508775,-0.0015240413694589138,-0.004939279549189823,0.00011162871187435136,0.0033036094678565585,0.25741136190084196,0.25067090942493264,0.003534944570134827,0.0032055079057745142,-0.0020693378946581185,0.0012777719353537602,0.00027868150664405096,-0.00362579133665593,0.0031668086406483466,-0.0006173237198804481,0.0001325299622491251,0.0036516023982796695,0.8013326993105324,0.7984483906518557,-0.000677787816922016,0.0035620964755988423,,,,,,,,,,,,
0.42,9.940358169791736,10.000487882443299,-0.010748366301390833,-0.049381346350172856,0.0012028550812841514,-0.000255500547169607,-0.0011105867031148474,0.0025689423315686057,-0.008394395913387332,-0.004901713975249855,0.00011162871187435136,-0.0036043106500118272,0.275047590377723,0.27465691752121746,0.003534944570134827,-0.0031442717136292747,0.001057942037839897,-0.006383589649676811,0.00027868150664405096,0.007162850180872657,0.008809856520930415,0.001717783921059294,0.0001325299622491251,0.006959542637621995,0.7994286846642825,0.8004612818313641,-0.000677787816922016,-0.00035480935015955737,0.011787418189027619,0.0134622044433373,0.0068733103943305045,-0.008548096648640183,-0.0037288439212269132,0.004518349695004657,-0.009869456699525898,0.001622263083294328,-0.0007452307377143596,0.0014808417162278458,-0.004196408858150414,0.0019703364042082086
0.44999999999999996,10.007250445083647,10.000536341619089,-0.010748366301390833,0.017462469765949323,-0.004411313230363473,-0.0004826295852615736,-0.0011105867031148474,-0.002818096941987052,-0.0029521786269415175,-0.004937747470563192,0.00011162871187435136,0.001873940131747323,0.3022310849141378,0.2986740528981775,0.003534944570134827,2.208744582550761e-05,-0.007524995208007026,-0.0020429623471736784,0.00027868150664405096,-0.0057607143674773984,-0.0039000596674438406,-0.002078635970369765,0.0001325299622491251,-0.0019539536593232007,0.7993530699904823,0.8006495044863055,-0.000677787816922016,-0.0006186466789011357,,,,,,,,,,,,
0.48,,,,,-0.0024720260112417423,-0.0006874151758045066,-0.0011105867031148474,-0.0006740241323223882,-0.001395713170997087,-0.004723988825420022,0.00011162871187435136,0.0032166469425485844,0.33451241856040215,0.32272841141542585,0.003534944570134827,0.008249062574841492,-0.0027335517868909125,-0.0026277001114325452,0.00027868150664405096,-0.00038453318210241865,0.0023283923330148417,0.00786727846660815,0.0001325299622491251,-0.005671416095842433,0.8082936786162175,0.8028147600091652,-0.000677787816922016,0.006156706423974398,,,,,,,,,,,,
0.51,10.000209466066693,10.00064974309574,-0.010748366301390833,0.010308089272342036,0.004626556003690751,-0.0007921922605986786,-0.0011105867031148474,0.006529334967404278,-0.00015515118438883067,-0.004555867407778358,0.00011162871187435136,0.004289087511515176,0.3484803546967134,0.3468219518651461,0.003534944570134827,-0.0018765417385674808,-0.0026711576275040144,0.0016583532701868841,0.00027868150664405096,-0.00460819240433495,-0.0006593277668924804,0.003857135477998613,0.0001325299622491251,-0.004648993207140219,0.8048861111267297,0.8033757454161753,-0.000677787816922016,0.0021881535274764757,,0.015211915547375575,0.0068733103943305045,,,0.005556551485043394,-0.009869456699525898,,,0.001949802084827155,-0.004196408858150414,
0.54,,,,,0.0008261926034711909,-0.0009731091120634972,-0.0011105867031148474,0.0029098884186495354,-0.0032179441049639194,-0.004269953962856565,0.00011162871187435136,0.0009403811460182947,0.3598548272526209,0.37091565778863034,0.003534944570134827,-0.01459577510614424,-0.00440971791249864,-0.0038572258236828096,0.00027868150664405096,-0.0008311735954598808,0.006000258564136683,0.009171675240627859,0.0001325299622491251,-0.003303946638740301,0.8012336534938811,0.8029007414643052,-0.000677787816922016,-0.0009893001535021203,,,,,,,,,,,,
0.57,10.030517402241834,10.000750250723424,-0.010748366301390833,0.040515517819800534,-0.0017028004359102768,-0.0013105894242224636,-0.0011105867031148474,0.0007183756914270342,0.0010923077530053471,-0.004094858295125903,0.00011162871187435136,0.005075537336256899,0.41207853273416356,0.3949968336233747,0.003534944570134827,0.013546754540654054,-0.010861045727497787,-0.00927058155091242,0.00027868150664405096,-0.0018691456832294184,0.0011943705414318166,0.0037537769100886836,0.0001325299622491251,-0.002691936330905992,0.8023465136963859,0.8025332577450209,-0.000677787816922016,0.0004910437682869641,,,,,,,,,,,,
0.6,10.010984515757736,10.000784498427405,-0.010748366301390833,0.020948383631720864,-0.005064075461010753,-0.0014953125365209097,-0.0011105867031148474,-0.002458176221374996,-0.007783437363913381,-0.0035325033501392156,0.00011162871187435136,-0.004362562725648517,0.4139110191784038,0.41907535552159425,0.003534944570134827,-0.0086992809133253,0.00331548870982867,0.0008196627508576856,0.00027868150664405096,0.0022171444523269336,0.015390232530703842,0.01833458914217281,0.0001325299622491251,-0.003076886573718092,0.7993171302786353,0.802729391540681,-0.000677787816922016,-0.002734473445123643,0.02400779749629238,0.01375182832857569,0.0068733103943305045,0.0033826587733861856,-0.02897806351400282,0.004960890143589154,-0.009869456699525898,-0.024069496958066077,-0.016797650336835973,0.0008772446754881731,-0.004196408858150414,-0.013478486154173732
0.63,,,,,0.0007676892886141059,-0.0014849517061388262,-0.0011105867031148474,0.0033632276978677795,-0.0011621750181429141,-0.0030817106559553054,0.00011162871187435136,0.0018079069259380397,0.482242502168586,0.44315688808715015,0.003534944570134827,0.03555066951130101,-0.0006575839358564199,0.0038501807341726714,0.00027868150664405096,-0.004786446176673142,0.01782791680162687,0.01144539328331372,0.0001325299622491251,0.006249993556064026,0.8044677593840956,0.8027417354510346,-0.000677787816922016,0.0024038117499831754,,,,,,,,,,,,
0.6599999999999999,9.996548386902335,10.000830458469991,-0.010748366301390833,0.006466294733733208,-0.007159505965640722,-0.0016379195675839675,-0.0011105867031148474,-0.0044109996949419075,-0.006901131873815887,-0.002593496210861357,0.00011162871187435136,-0.004419264374828882,0.44464980213211686,0.4672278191398709,0.003534944570134827,-0.026112961577888828,-0.007197080356460765,-0.005433498906983234,0.00027868150664405096,-0.002042262956121581,0.017269591668677288,0.014481168133941518,0.0001325299622491251,0.0026558935724866456,0.8017256342995694,0.8020696712526609,-0.000677787816922016,0.0003337508638305476,,,,,,,,,,,,
0.69,,,,,-0.0017480215069601648,-0.0015679487512745283,-0.0011105867031148474,0.0009305139474292108,0.002841106710301486,-0.002281228948729286,0.00011162871187435136,0.00501070694715642,0.4600500692063324,0.4913228432325747,0.003534944570134827,-0.03480771859637713,0.0024416409466056057,0.008557201813532603,0.00027868150664405096,-0.006394242373571048,0.008270998301630271,0.006643684143038352,0.0001325299622491251,0.0014947841963427928,0.8017991578117668,0.8041543329523365,-0.000677787816922016,-0.0016773873236476926,,,,,,,,,,,,
0.72,10.016089110750269,10.000855571246941,-0.010748366301390833,0.025981905804718024,-0.0020816771000645587,-0.0015194855992368694,-0.0011105867031148474,0.0005483952022871581,-0.002499298742896841,-0.0020151779890853483,0.00011162871187435136,-0.0005957494656858443,0.5404056560751864,0.5154189761903374,0.003534944570134827,0.021451735314714202,0.0050329558054313,0.0008871690770994025,0.00027868150664405096,0.003867105221687847,0.0029235372529050714,0.0071895971220891745,0.0001325299622491251,-0.004398589831433228,0.8001925759544535,0.8023926264374492,-0.000677787816922016,-0.001522262666073661,0.012720901749715685,0.014481725928782397,0.0068733103943305045,-0.008634134573397217,-0.01945151187883761,0.004104430977178576,-0.009869456699525898,-0.013686486156490289,-0.002361886231433955,0.00017468970113555923,-0.004196408858150414,0.0016598329255809003
0.75,9.99490851715861,10.000856920251048,-0.010748366301390833,0.004799963208952996,-0.0007014475857710458,-0.001555171352086493,-0.0011105867031148474,0.0019643104694302945,-0.00016603353184575678,-0.0019639900675478827,0.00011162871187435136,0.0016863278238277745,0.5580043000276377,0.5395152188448642,0.003534944570134827,0.014954136612638716,0.0017415556494404785,-3.595098851841218e-06,0.00027868150664405096,0.0014664692416482686,-0.00011309695441493925,-0.0010227583623201933,0.0001325299622491251,0.0007771314456561289,0.8026740304284605,0.8039206782218824,-0.000677787816922016,-0.000568859976499791,,,,,,,,,,,,
0.78,,,,,-4.208168305368503e-05,-0.0017513918178893029,-0.0011105867031148474,0.002819896837950465,0.00208720538814984,-0.0019063087458137673,0.00011162871187435136,0.0038818854220892558,0.5957406659657721,0.5635984241741081,0.003534944570134827,0.028607297221529167,-0.01027808750718823,-0.006822379501914715,0.00027868150664405096,-0.0037343895119175668,0.0004523429599095182,0.0009538918160782715,0.0001325299622491251,-0.0006340788184178784,0.7974193000351134,0.8017705840690968,-0.000677787816922016,-0.0036734962170613798,,,,,,,,,,,,
0.8099999999999999,9.973699445213398,10.00083863691182,-0.010748366301390833,-0.016390825397029747,-0.0061874657161655,-0.0018929799390474678,-0.0011105867031148474,-0.003183899074003185,0.0007387192892038125,-0.0017118701727469876,0.00011162871187435136,0.0023389607500764486,0.5703823592942471,0.5876497025218228,0.003534944570134827,-0.02080228779771058,-0.00035325010022371376,-0.0010974984336686406,0.00027868150664405096,0.0004655668268008759,0.004236328842584049,0.005091934083551837,0.0001325299622491251,-0.0009881352032169127,0.8056463598997883,0.8016734948991913,-0.000677787816922016,0.004650652817519096,0.023515263942106582,0.014570616519331206,0.0068733103943305045,0.00207133702844487,0.0043543218574667465,0.0027192463474144594,-0.009869456699525898,0.011504532209578184,0.004607797743279284,-0.0005602666322844388,-0.004196408858150414,0.009364473233714136
0.84,,,,,-0.005608265792132737,-0.0018052157900809718,-0.0011105867031148474,-0.002692463298936918,-0.003929393765196887,-0.001350955007354937,0.00011162871187435136,-0.002690067469716302,0.6216962696226381,0.611690662351065,0.003534944570134827,0.00647066270143832,0.009052532967392628,0.006717884310737002,0.00027868150664405096,0.0020559671500115758,0.009260776288010232,0.010246427001105207,0.0001325299622491251,-0.0011181806753441004,0.7989909076314609,0.8011353433341281,-0.000677787816922016,-0.0014666478857451302,,,,,,,,,,,,
0.87,10.017981356057021,10.00079240567177,-0.010748366301390833,0.027937316686640158,-0.008426220597377162,-0.0016830066752540063,-0.0011105867031148474,-0.0056326272190083074,-0.002701511778830335,-0.0008602806059303525,0.00011162871187435136,-0.001952859884774334,0.6273769220272198,0.6357551193291635,0.003534944570134827,-0.011913141872078476,0.006815819878925265,0.004175010755561754,0.00027868150664405096,0.0023621276167194605,0.013772551013650908,0.014357104422344735,0.0001325299622491251,-0.0007170833709429518,0.8080500937558174,0.8030806198109449,-0.000677787816922016,0.00564726176179457,,,,,,,,,,,,
0.8999999999999999,10.005691898332696,10.000755035730466,-0.010748366301390833,0.015685228903620615,-0.0029748303566485357,-0.0014080863438237223,-0.0011105867031148474,-0.0004561573097099661,0.006823645538400948,-0.00037088177596400485,0.00011162871187435136,0.0070828986024906015,0.671779135906351,0.6598443811150125,0.003534944570134827,0.008399810221203653,0.009102862612034747,0.011773365241449459,0.00027868150664405096,-0.0029491841360587616,0.015443952863077669,0.01338500002856583,0.0001325299622491251,0.0019264228722627149,0.8004449492224323,0.8029307559888754,-0.000677787816922016,-0.001808018949521081,0.033519515288011816,0.010859406648819252,0.0068733103943305045,0.01578679824486206,0.015009634323579595,0.0036913501760344374,-0.009869456699525898,0.021187740847071056,0.006320398969330801,-0.001435597957740472,-0.004196408858150414,0.011952405785221687
0.9299999999999999,,,,,-0.011541208734880211,-0.0012692631365061047,-0.0011105867031148474,-0.009161358895259259,-0.0028170385111099434,-0.00026543625872443855,0.00011162871187435136,-0.0026632309642598564,0.6989194459124042,0.6839623797371783,0.003534944570134827,0.01142212160509103,0.0033501200639344903,0.0009322921925968355,0.00027868150664405096,0.0021391463646936036,0.0034265420541641314,0.00014126140848311208,0.0001325299622491251,0.003152750683431894,0.7958529937135539,0.8048168670772823,-0.000677787816922016,-0.008286085546806347,,,,,,,,,,,,
0.96,9.97117157263431,10.000649132824167,-0.010748366301390833,-0.018729193888466476,0.0007406701792950325,-0.001279685030317168,-0.0011105867031148474,0.003130941912727048,-0.005488180558076995,-0.00010158288392414505,0.00011162871187435136,-0.005498226386027201,0.708302713421267,0.7081075499524347,0.003534944570134827,-0.00333978110130251,-0.0012527057757523799,-0.0004772428083502742,0.00027868150664405096,-0.0010541444740461566,0.0008702718021628628,0.004769482999854678,0.0001325299622491251,-0.00403174115994094,0.8070733292675498,0.8048688626792396,-0.000677787816922016,0.0028822544052323072,,,,,,,,,,,,
0.99,,,,,-0.004428389939431851,-0.0012968477802344225,-0.0011105867031148474,-0.0020209554560825815,0.0031595612257136014,-2.2808693183495876e-05,0.00011162871187435136,0.003070741207022746,0.749369418775754,0.7322354571657139,0.003534944570134827,0.013599017039905266,0.0013381067736295727,-0.0005764144900853597,0.00027868150664405096,0.0016358397570708813,-0.004688007945285255,0.0006357334666627799,0.0001325299622491251,-0.00545627137419716,0.8023770464317322,0.8037401519806219,-0.000677787816922016,-0.0006853177319675183,,,,,,,,,,,,
1.02,9.965568838218696,10.000493382266393,-0.010748366301390833,-0.0241761777463068,-0.009554232031631355,-0.0016137098144342055,-0.0011105867031148474,-0.006829935514082302,-0.003252177696082176,7.978574028122409e-07,0.00011162871187435136,-0.0033646042653593397,0.7675236619226184,0.7563378049345557,0.003534944570134827,0.007650912417927878,-0.010676259022728304,-0.014557506930873713,0.00027868150664405096,0.0036025664015013584,0.003004453566807013,-0.00029496122341205323,0.0001325299622491251,0.0031668848279699413,0.7980559922112178,0.8031227608382112,-0.000677787816922016,-0.004388980810071309,0.03488992791527812,0.009996085072621374,0.0068733103943305045,0.01802053244832624,0.018843037119415332,0.0002697475168222923,-0.009869456699525898,0.02844274630211894,-0.007847464628553534,-0.0030263785243315267,-0.004196408858150414,-0.0006246772460715938
1.05,10.014771890519837,10.000397982267515,-0.010748366301390833,0.025122274553711917,0.0049333613401888275,-0.0017698311814076106,-0.0011105867031148474,0.007813779224711286,-0.001602326599326645,-7.211225359959883e-06,0.00011162871187435136,-0.0017067440858410364,0.8094466964190078,0.7804211570742914,0.003534944570134827,0.02549059477458155,0.0013894423633017843,-0.000499423909739078,0.00027868150664405096,0.0016101847663968114,0.0005389710789869967,-0.002283293335988688,0.0001325299622491251,0.0026897344527265594,0.8003874175697242,0.8024760787301857,-0.000677787816922016,-0.0014108733435394334,,,,,,,,,,,,
1.08,,,,,-0.004933589016680924,-0.001837985298908329,-0.0011105867031148474,-0.001985017014657748,-0.0025841912331381924,-0.00016895918659454168,0.00011162871187435136,-0.002526860758418002,0.8114548869898037,0.8045202929688191,0.003534944570134827,0.003399649450849765,-0.0011937183149472012,-0.0030114582492504617,0.00027868150664405096,0.0015390584276592093,-0.007986910590708465,-0.007241872520236115,0.0001325299622491251,-0.0008775680327214745,0.7989026046040814,0.804006539484824,-0.000677787816922016,-0.004426147063820648,,,,,,,,,,,,
1.1099999999999999,10.001468182087773,10.000179563622833,-0.010748366301390833,0.012036984766331063,-0.0075258774318437294,-0.0020830777829430325,-0.0011105867031148474,-0.004332212945785849,-0.0045494703263475825,-0.00016409676026674092,0.00011162871187435136,-0.004497002277955193,0.7884532093189429,0.8286369965868774,0.003534944570134827,-0.04371873183806934,-0.008757886253589076,-0.009608863177991514,0.00027868150664405096,0.0005722954177583882,0.0018671588510909946,-7.4487190825848e-05,0.0001325299622491251,0.0018091160796677175,0.8048003788783131,0.803784845768411,-0.000677787816922016,0.0016933209268241744,-0.014554377898114142,0.008132425357927837,0.0068733103943305045,-0.029560113650372484,-0.021045884854242157,-0.0003746839597440592,-0.009869456699525898,-0.010801744194972202,0.015752833545759622,-0.00396874557321263,-0.004196408858150414,0.023917987977122666
1.14,,,,,-0.009819805209522418,-0.0021317474300563966,-0.0011105867031148474,-0.006577471076351173,0.0008218029635907729,-0.00019934545841371332,0.00011162871187435136,0.0009095197101301348,0.8421465156069883,0.8527460066600443,0.003534944570134827,-0.014134435623190805,0.0004992643354549547,0.002359426369285371,0.00027868150664405096,-0.002138843540474467,0.0005355824660755026,-0.0036858574612786393,0.0001325299622491251,0.004088909965105017,0.7974532161793223,0.8034943596571906,-0.000677787816922016,-0.005363355660946253,,,,,,,,,,,,
1.17,9.979006328198182,9.999923162065933,-0.010748366301390833,-0.010168467566360695,-0.0006422114426117742,-0.002035300504243942,-0.0011105867031148474,0.002503675764747015,-0.00785114513152393,-0.0001335469011123358,0.00011162871187435136,-0.007829226942285945,0.8665984822003561,0.8768471325434826,0.003534944570134827,-0.013783594913261308,0.007273698358190191,0.0038282426603035314,0.00027868150664405096,0.0031667741912426092,0.0027856881902207356,0.001068820863328844,0.0001325299622491251,0.0015843373646427666,0.7979628649003513,0.8032682174649922,-0.000677787816922016,-0.004627564747718896,,,,,,,,,,,,
1.2,9.982777469684502,9.99978002483844,-0.010748366301390833,-0.006254188852548796,-0.0002049654972143041,-0.0018592328851965156,-0.0011105867031148474,0.002764854091097059,-0.00849394000264915,-0.0003416247754826074,0.00011162871187435136,-0.008263943939040895,0.9202642266462,0.9008425222625753,0.003534944570134827,0.015886759813489866,0.004783886587421712,0.006359795605009059,0.00027868150664405096,-0.0018545905242313974,-0.0058950348585686384,-0.009891150648336768,0.0001325299622491251,0.0038635858275190044,0.7928157553070342,0.7968318886561061,-0.000677787816922016,-0.0033383455321498363,0.014376098901189361,0.008192325850334324,0.0068733103943305045,-0.0006895373434754667,-0.02844982179113923,0.0010600449963656606,-0.009869456699525898,-0.019640410087978993,-0.01444154063224596,-0.004989516029097404,-0.004196408858150414,-0.005255615744998142
1.23,,,,,-0.005390903093964801,-0.0016165948989121937,-0.0011105867031148474,-0.00266372149193776,0.0003269477861094362,-0.0004419496634171516,0.00011162871187435136,0.0006572687376522364,0.9169918003726247,0.9245282231154022,0.003534944570134827,-0.0110713673129123,0.01614794296103368,0.009062324997597244,0.00027868150664405096,0.006806936456792385,-0.0036760090735968934,-0.0034737474764452853,0.0001325299622491251,-0.00033479155940073307,0.780449018891512,0.7831291724410995,-0.000677787816922016,-0.002002365732665461,,,,,,,,,,,,
1.26,10.001551242519618,9.999474905449622,-0.010748366301390833,0.0128247033713855,-0.0032697364121418537,-0.0014857559454402036,-0.0011105867031148474,-0.0006733937635868026,0.0033739544739496054,-0.0002301103286086459,0.00011162871187435136,0.0034924360906839,0.9336047437156297,0.9477366531028286,0.003534944570134827,-0.01766685395733368,0.004599182553516298,0.002668174587919574,0.00027868150664405096,0.0016523264589526734,0.00981120882795659,0.007219468630806015,0.0001325299622491251,0.0024592102349014497,0.7643660935986741,0.7653205424989915,-0.000677787816922016,-0.0002766610833953246,,,,,,,,,,,,
1.29,,,,,-0.0037254751885489714,-0.0014955503824141125,-0.0011105867031148474,-0.0011193381030200117,0.003123790912031815,0.00023347431241393934,0.00011162871187435136,0.0027786878877435243,0.9719435953056311,0.9703567384330567,0.003534944570134827,-0.0019480876975604285,0.006190161861460295,-0.0013382424767294813,0.00027868150664405096,0.007249722831545726,0.018778673503905028,0.014301817460677765,0.0001325299622491251,0.004344326080978137,0.7429655650962526,0.744153881831156,-0.000677787816922016,-0.0005105289179814745,,,,,,,,,,,,
1.3199999999999998,9.989639733285394,9.999143395739695,-0.010748366301390833,0.001244703847089527,0.002319009784279209,-0.0015298821684277542,-0.0011105867031148474,0.004959478655821811,0.0005549511174910914,0.0004366611754025307,0.00011162871187435136,6.6612302142094225e-06,0.9810745502473486,0.9923216290780177,0.003534944570134827,-0.014782023400803876,-0.00272577002260634,-0.0015819998851637983,0.00027868150664405096,-0.0014224516440865928,0.0001135423047003213,0.003189819660955136,0.0001325299622491251,-0.00320880731850394,0.7242879994342204,0.721697876887654,-0.000677787816922016,0.0032679103634885454,0.019305099642533352,0.0029268000780012116,0.0068733103943305045,0.009504989170201634,-0.009603936663722541,-8.573313166392331e-05,-0.009869456699525898,0.0003512531674672803,-0.06391989448965701,-0.005662583427990622,-0.004196408858150414,-0.054060902203515976
1.3499999999999999,9.972650202045116,9.998972637701439,-0.010748366301390833,-0.01557406935493162,0.00864327989047831,-0.0015279125446610031,-0.0011105867031148474,0.01128177913825416,-0.002501527563876531,0.00043356193612842375,0.00011162871187435136,-0.003046718211879306,1.022644970818202,1.0135823749519686,0.003534944570134827,0.005527651296098368,0.0014406793018323755,0.0002676600484126236,0.00027868150664405096,0.000894337746775701,0.00028676423974827517,-0.0021670347047298213,0.0001325299622491251,0.0023212689822289714,0.6911788600519378,0.6973130353420403,-0.000677787816922016,-0.005456387473180333,,,,,,,,,,,,
1.38,,,,,-0.000246513762442579,-0.0016159838715497088,-0.0011105867031148474,0.002480056812221977,-0.004730636875624209,-3.1722346016671565e-06,0.00011162871187435136,-0.004839093352896893,1.0362694154595258,1.0341556622327026,0.003534944570134827,-0.0014211913433116586,-0.004612756307884775,-0.0049639505752816695,0.00027868150664405096,7.251276075284398e-05,-0.011252926330603685,-0.016808990611623963,0.0001325299622491251,0.005423534318771154,0.6783849007161056,0.6756356692195302,-0.000677787816922016,0.003427019313497447,,,,,,,,,,,,
1.41,10.008474279286746,9.99863171085856,-0.010748366301390833,0.020590934729578295,0.0017550978742428328,-0.0016263790643855636,-0.0011105867031148474,0.004492063641743244,-0.002772865429085352,-0.00023694361456438884,0.00011162871187435136,-0.0026475505263953147,1.0471865633949333,1.0540700529502995,0.003534944570134827,-0.01041843412550123,-0.0018234700396133844,0.002248023021070685,0.00027868150664405096,-0.00435017456732812,-0.008826313699034404,-0.006737861913767419,0.0001325299622491251,-0.00222098174751611,0.6515161040136784,0.6534365395082715,-0.000677787816922016,-0.0012426476776710486,-0.019643508999606724,0.0036844195621700696,0.0068733103943305045,-0.0302012389561073,0.018109304341654663,-0.0004035420050199643,-0.009869456699525898,0.028382303046200527,-0.019876267545592786,-0.00576678169141772,-0.004196408858150414,-0.009913076996024651
1.44,,,,,-0.007540848695263155,-0.0016732932996084138,-0.0011105867031148474,-0.004756968692539894,-0.0021717829026594118,-0.0004062429255196065,0.00011162871187435136,-0.0018771686890141565,1.0944181114191676,1.0733126883621704,0.003534944570134827,0.017570478486862218,-0.008346266950312979,-0.002934615008295195,0.00027868150664405096,-0.005690333448661835,-0.0039709319077043306,-0.0060781751185257065,0.0001325299622491251,0.0019747132485722504,0.6323280853147619,0.6308761614692338,-0.000677787816922016,0.0021297116624502095,,,,,,,,,,,,
1.47,10.020916591016256,9.998284877928214,-0.010748366301390833,0.033380079389433555,0.004537660847463052,-0.0016724791515847492,-0.0011105867031148474,0.007320726702162649,0.001236055710761038,-0.0005597875413090314,0.00011162871187435136,0.0016842145401957179,1.1020546847756907,1.091919974002499,0.003534944570134827,0.00659976620305682,0.0046924520549216555,0.0018755420051310033,0.00027868150664405096,0.002538228543146601,-0.007620932677054246,-0.005833876420676003,0.0001325299622491251,-0.0019195862186273693,0.6061739664441332,0.6109053158531516,-0.000677787816922016,-0.004053561592096245,,,,,,,,,,,,
1.5,10.00333602669479,9.998108532025794,-0.010748366301390833,0.015975860970386387,-0.005084571943179701,-0.001428705332353175,-0.0011105867031148474,-0.002545279907711679,-0.00502886520311486,-0.0006798465806578946,0.00011162871187435136,-0.004460647334331317,1.1012699072479746,1.1099285575526707,0.003534944570134827,-0.012193594874831029,0.009249101573948992,0.011128781909826128,0.00027868150664405096,-0.0021583618425211884,-0.008898351050144773,-0.0045952330207844625,0.0001325299622491251,-0.004435647991609434,0.5901398012145852,0.5909614015752488,-0.000677787816922016,-0.00014381254374147816,0.014085578097403625,0.0026698956295362437,0.0068733103943305045,0.0045423720735368765,-0.013179895532364101,-4.055033574690628e-05,-0.009869456699525898,-0.003269888497091298,0.0032748083125051803,-0.0059203906248370495,-0.004196408858150414,0.013391607795492644
1.53,,,,,-0.004157620037118026,-0.0012220228066128769,-0.0011105867031148474,-0.0018250105273903022,0.007482910293621814,-0.0008455611326554369,0.00011162871187435136,0.0082168427144029,1.1309123607740348,1.1273339528533963,0.003534944570134827,4.34633505036232e-05,0.006064525619182629,0.005062699670199559,0.00027868150664405096,0.0007231444423390189,-0.006793594490557646,-0.006030190345452732,0.0001325299622491251,-0.0008959341073540392,0.571074873574119,0.5707069773304883,-0.000677787816922016,0.0010456840605528046,,,,,,,,,,,,
1.56,10.031822910850623,9.997747808363581,-0.010748366301390833,0.04482346878843388,4.5547916537479975e-05,-0.0013835119756606673,-0.0011105867031148474,0.0025396465953129947,0.005236733359755548,-0.0007203722026867254,0.00011162871187435136,0.005845476850567922,1.1554401648089199,1.1441070573144483,0.003534944570134827,0.007798162924336699,-0.006337012454108977,-0.009007816126945834,0.00027868150664405096,0.0023921221661928056,0.007479641083112044,0.005243690330936086,0.0001325299622491251,0.0021034207899268327,0.5498154532798515,0.548926810182468,-0.000677787816922016,0.0015664309143055635,,,,,,,,,,,,
1.5899999999999999,,,,,-0.0032315609072306396,-0.00133277677522603,-0.0011105867031148474,-0.0007881974288897622,-0.003643777960588309,-0.0005334353704458117,0.00011162871187435136,-0.0032219713020168487,1.170435208157178,1.1602455014340194,0.003534944570134827,0.006654762153023667,0.004781768702634221,0.007134304403949524,0.00027868150664405096,-0.0026312172079593537,0.0076489382205753055,0.004613649770100145,0.0001325299622491251,0.0029027584882260356,0.5290482725501555,0.5283235816163117,-0.000677787816922016,0.0014024787507659676,,,,,,,,,,,,
1.6199999999999999,10.024504123791223,9.997345513757868,-0.010748366301390833,0.037906976334745636,-0.007340826443088052,-0.001318823260081814,-0.0011105867031148474,-0.004911416479891391,0.006921828933327175,-0.0005364859062657601,0.00011162871187435136,0.007346686127718584,1.154877220557835,1.1758211663312572,0.003534944570134827,-0.024478890343557002,-0.0009031592246595875,-0.0024007882162863144,0.00027868150664405096,0.0012189474849826762,0.0017867061982682411,-0.0017820568931475418,0.0001325299622491251,0.0034362331291666577,0.5068475450027803,0.5111633195811304,-0.000677787816922016,-0.0036379867614280462,0.016685764081067474,0.00029658147041657627,0.0068733103943305045,0.009515872216320394,-0.046834443994819355,-0.0014766064361104423,-0.009869456699525898,-0.035488380859183016,-0.021819925009375914,-0.007234283160496323,-0.004196408858150414,-0.010389232990729177
1.65,9.969458910192056,9.997128297537826,-0.010748366301390833,-0.01692102104437892,-0.0028171296383889496,-0.0011898566188697224,-0.0011105867031148474,-0.0005166863164043798,0.00014516398251405538,-0.000699317126319432,0.00011162871187435136,0.000732852396959136,1.1849700592059909,1.190861969960583,0.003534944570134827,-0.009426855324727059,0.009163285195987428,0.007537921476650802,0.00027868150664405096,0.001346682212692575,-0.009106390313058915,-0.006638231216866036,0.0001325299622491251,-0.0026006890584420045,0.49716016562947746,0.492729995300175,-0.000677787816922016,0.005107958146224435,,,,,,,,,,,,
1.68,,,,,-0.003468860473024767,-0.0011113806188607356,-0.0011105867031148474,-0.0012468931510491842,0.003066378563896561,-0.0007300738369826476,0.00011162871187435136,0.0036848236890048573,1.2085698557212652,1.2053575802751322,0.003534944570134827,-0.00032266912400201594,-0.0003487814900366166,0.0007624221444463598,0.00027868150664405096,-0.0013898851411270274,0.004168256132247784,-0.00036678295885951475,0.0001325299622491251,0.004402509128858174,0.47348466005442924,0.47479346633558056,-0.000677787816922016,-0.0006310184642292882,,,,,,,,,,,,
1.71,10.006944692808336,9.99668841767493,-0.010748366301390833,0.02100464143479706,-0.007891692344522513,-0.0009215377607727504,-0.0011105867031148474,-0.005859567880634916,-0.003942717162845983,-0.0005864955877852296,0.00011162871187435136,-0.003467850286935105,1.2252861396059491,1.2193446470559728,0.003534944570134827,0.0024065479798413385,0.00748731904118464,0.009119625841072608,0.00027868150664405096,-0.0019109883065320187,0.0028327968703255792,0.00461853171531846,0.0001325299622491251,-0.0019182648072420061,0.4555809692921405,0.45871734904862205,-0.000677787816922016,-0.002458591939559564,0.012663108684330992,-0.0020809207045978714,0.0068733103943305045,0.007870718994598359,-0.0027481631256840488,0.0002098930384254879,-0.009869456699525898,0.006911400535416361,-0.019330502903647084,-0.007478144663256514,-0.004196408858150414,-0.007655949382240154
1.74,,,,,-0.0003575411982621583,-0.0007161145277811976,-0.0011105867031148474,0.0014691600326338866,-0.001218670928505432,-0.00048188196599019406,0.00011162871187435136,-0.0008484176743895893,1.2420195809490022,1.2328626137946515,0.003534944570134827,0.005622022584215813,0.0015893708527808395,0.005665842583666585,0.00027868150664405096,-0.004355153237529796,-0.002091808708875228,0.002512826747030226,0.0001325299622491251,-0.004737165418154579,0.444839444090545,0.443460798651,-0.000677787816922016,0.002056433256466967,,,,,,,,,,,,
1.77,9.979397983783318,9.996243503429849,-0.010748366301390833,-0.006097153345140058,-0.0035219313070451418,-0.0005202452963821713,-0.0011105867031148474,-0.001891099307548123,-0.008752790735329495,-0.0006490722436294227,0.00011162871187435136,-0.008215347203574424,1.266995849968105,1.245919032115781,0.003534944570134827,0.017541873282189337,0.00660317156113807,0.00668598010927577,0.00027868150664405096,-0.00036149005478175065,-0.013012237009120752,-0.007056039701389165,0.0001325299622491251,-0.006088727269980713,0.43500083597853983,0.42794885764277174,-0.000677787816922016,0.007729766152690086,,,,,,,,,,,,
1.7999999999999998,10.010660826348914,9.996025611538249,-0.010748366301390833,0.025383581112055777,-0.002055289088148205,-0.00014349210130015777,-0.0011105867031148474,-0.0008012102837332,0.002478008681267756,-0.0008678390266334546,0.00011162871187435136,0.003234218996026859,1.2607971332232812,1.2585063453260963,0.003534944570134827,-0.0012441566729500407,0.016040624396853498,0.014948857604793867,0.00027868150664405096,0.0008130852854155803,-0.007991069550181371,-0.006947251708682946,0.0001325299622491251,-0.001176347803747549,0.40830972322716025,0.4122004455227092,-0.000677787816922016,-0.003212934478626897,-0.019475396279542596,-0.00038678130047802565,0.0068733103943305045,-0.025961925373395076,-0.008983776269252824,0.0021759774604078667,-0.009869456699525898,-0.0012902970301347926,-0.04161959614494011,-0.007070173595259764,-0.004196408858150414,-0.030353013691529932
1.8299999999999998,,,,,-0.0007524960440944558,-1.7701125521796257e-05,-0.0011105867031148474,0.00037579178454218783,-0.004149932058310446,-0.0009513248269801267,0.00011162871187435136,-0.003310235943204671,1.276362606178259,1.2706427370891404,0.003534944570134827,0.0021849245189836026,-0.0022824215487918407,-0.0005111010651653678,0.00027868150664405096,-0.002050001990270524,-0.0012917720837480134,-0.00151858440213507,0.0001325299622491251,9.428235613793153e-05,0.39853594041464246,0.3978035924401303,-0.000677787816922016,0.0014101357914341947,,,,,,,,,,,,
1.8599999999999999,9.975329337086922,9.995603161758023,-0.010748366301390833,-0.009525458369709416,0.002973808190604862,4.917148037009156e-05,-0.0011105867031148474,0.004035223413349618,0.003873597072766023,-0.0009363941897455597,0.00011162871187435136,0.004698362550637231,1.2861587297061767,1.2823442799564946,0.003534944570134827,0.00027950517954716684,0.006845795833106115,0.003938677278550775,0.00027868150664405096,0.0026284370479112895,0.004199629269912198,0.0008101772661114632,0.0001325299622491251,0.00325692204155161,0.38686167720709336,0.38322063334802225,-0.000677787816922016,0.004318831675993091,,,,,,,,,,,,
1.89,,,,,-0.008502388696802813,7.367484998965779e-05,-0.0011105867031148474,-0.007465476843677624,-0.008025100240520748,-0.0009634021079443222,0.00011162871187435136,-0.0071733268444507765,1.2968641168119708,1.2936407017769573,0.003534944570134827,-0.00031152953512151953,-0.0003221971996826344,-0.00023683403763328278,0.00027868150664405096,-0.00036404466869340257,-0.002753028310923498,-0.0011026611482410605,0.0001325299622491251,-0.0017828971249315626,0.36974617914423613,0.37066596465216345,-0.000677787816922016,-0.00024199769100532868,,,,,,,,,,,,
1.92,9.979720451406129,9.995185559300646,-0.010748366301390833,-0.004716741593126543,-0.006919512185701146,0.00013572909336279082,-0.0011105867031148474,-0.005944654575949089,-0.0041563991947313195,-0.0012452575426435963,0.00011162871187435136,-0.003022770363962074,1.3100936131573322,1.3045480192386556,0.003534944570134827,0.0020106493485417733,0.0051703769502326555,0.003438552236530042,0.00027868150664405096,0.001453143207058563,-0.01535852029764536,-0.01021423240559467,0.0001325299622491251,-0.005276817854299815,0.3604352399359037,0.35732929163834265,-0.000677787816922016,0.0037837361144830452,0.010855541484014391,-0.0005472907385480781,0.0068733103943305045,0.004529521828231965,-0.003559674145111591,0.0028003549241016968,-0.009869456699525898,0.00350942763031261,-0.008513290292160447,-0.007131181290460993,-0.004196408858150414,0.0028142998564509598
1.95,9.963711117056727,9.994969326418962,-0.010748366301390833,-0.020509843060845367,-0.003266239927328754,0.0002732977592780905,-0.0011105867031148474,-0.002428950983491997,-0.004313376934248712,-0.0011816892958260716,0.00011162871187435136,-0.0032433163502969915,1.297114145055372,1.3150520861063217,0.003534944570134827,-0.021472885621084552,0.01298003647266055,0.005656800621458945,0.00027868150664405096,0.007044554344557555,0.005431273516012861,0.004448350626539959,0.0001325299622491251,0.0008503929272237768,0.3421410960378786,0.34378829318733056,-0.000677787816922016,-0.0009694093325299336,,,,,,,,,,,,
1.98,,,,,0.011231809692536406,0.0005242428115814768,-0.0011105867031148474,0.011818153584069777,-0.005288872254941458,-0.0009596673474314699,0.00011162871187435136,-0.004440833619384339,1.3318411007748565,1.32516659099048,0.003534944570134827,0.0031395652142416357,0.007994378083810177,0.009696604499923316,0.00027868150664405096,-0.001980907922757189,0.005006053406393629,0.007359668066034419,0.0001325299622491251,-0.0024861446218899155,0.3324204615978585,0.33128760382354533,-0.000677787816922016,0.0018106455912351603,,,,,,,,,,,,
2.01,10.002767327001983,9.994525366097706,-0.010748366301390833,0.01899032720566695,-0.006721394525790613,-0.004256705109471071,-0.0011105867031148474,-0.0013541027132046941,0.014491293935767065,0.008950379902472605,0.00011162871187435136,0.005429285321420108,1.3359228389627942,1.337508699509696,0.003534944570134827,-0.0051208051170367865,-0.20860512533785436,-0.21331617538270461,0.00027868150664405096,0.004432368538206205,0.2982906186083681,0.2942401873325022,0.0001325299622491251,0.0039179013136168145,0.48162274767655067,0.4821627461911443,-0.000677787816922016,0.0001377893023283921,-0.07280389535958444,-0.0660051952644607,0.0068733103943305045,-0.013672010489454241,-0.04084865997053244,-0.0301021527147712,-0.009869456699525898,-0.0008770505562353399,0.0011886002037410377,-0.0075814908722429105,-0.004196408858150414,0.012966499934134361
2.04,,,,,-0.01751688570215432,-0.010954392819038983,-0.0011105867031148474,-0.00545190618000049,0.01875747115141571,0.019615096452342495,0.00011162871187435136,-0.000969254012801135,1.3525115406223136,1.3535582010910625,0.003534944570134827,-0.004581605038883876,-0.22095790255193667,-0.2188798958919342,0.00027868150664405096,-0.002356688166646522,0.3114097630179088,0.3107717922186929,0.0001325299622491251,0.0005054408369667907,0.5948672415243449,0.5866476348407184,-0.000677787816922016,0.008897394500548574,,,,,,,,,,,,
2.07,9.997916604436353,9.99418783664208,-0.010748366301390833,0.014477134095663013,-0.020596247388904622,-0.016661743343752367,-0.0011105867031148474,-0.0028239173420374062,0.02905955546305677,0.028885028654189515,0.00011162871187435136,6.289809699290578e-05,1.3988443838648736,1.3721496423806023,0.003534944570134827,0.02315979691413637,-0.1825612782827255,-0.1849027216627591,0.00027868150664405096,0.002062761873389536,0.26786148945805877,0.26456867616019475,0.0001325299622491251,0.0031602833356149324,0.652937745858552,0.6564946710658734,-0.000677787816922016,-0.0028791373903993673,,,,,,,,,,,,
2.1,9.96197883809525,9.994084938594096,-0.010748366301390833,-0.02135773419745442,-0.013373764026989405,-0.02107188689035233,-0.0011105867031148474,0.008808709566477774,0.04093207247299931,0.036777045260173225,0.00011162871187435136,0.004043398500951738,1.3889030421638278,1.392513863725954,0.003534944570134827,-0.007145766132261147,-0.15159921415330962,-0.15102550809733686,0.00027868150664405096,-0.0008523875626168275,0.21800609384536568,0.2186380850626982,0.0001325299622491251,-0.000764521179581656,0.708927786704398,0.7069786226191944,-0.000677787816922016,0.002626951902125749,-0.12073330496225726,-0.12184680647061791,0.0068733103943305045,-0.005759808885969863,-0.06359136888215307,-0.06288968431888697,-0.009869456699525898,0.009167772136259798,-0.018785606732313796,-0.00839811135537344,-0.004196408858150414,-0.006191086518789943
2.13,,,,,-0.030820249782043202,-0.024130862514701867,-0.0011105867031148474,-0.005578800564226487,0.04361635756746007,0.04301947551201524,0.00011162871187435136,0.0004852533435704819,1.392154278141747,1.4141367547448658,0.003534944570134827,-0.02551742117325369,-0.11124260946731115,-0.11397431291543256,0.00027868150664405096,0.002453021941477359,0.1694019911324196,0.16464778848605327,0.0001325299622491251,0.0046216726841172085,0.7421133577797155,0.7403976204241918,-0.000677787816922016,0.0023935251724458537,,,,,,,,,,,,
2.16,10.004582234289451,9.994039345595942,-0.010748366301390833,0.021291254994899637,-0.02653433586859711,-0.026203923763108428,-0.0011105867031148474,0.0007801745976261638,0.045560143657457815,0.047446253762904345,0.00011162871187435136,-0.0019977388173208835,1.4117908233446612,1.4366866929297188,0.003534944570134827,-0.02843081415519258,-0.09170179787266644,-0.09300335779871007,0.00027868150664405096,0.0010228784193995768,0.11069114376876471,0.1065155543501721,0.0001325299622491251,0.004043059456343493,0.7630835062446424,0.7667280832552409,-0.000677787816922016,-0.0029667891936764204,,,,,,,,,,,,
2.19,,,,,-0.02653399657796617,-0.027543604836168356,-0.0011105867031148474,0.002120194961317036,0.04344043626104816,0.05055448263021711,0.00011162871187435136,-0.007225675081043303,1.4456537556590057,1.4599135548713145,0.003534944570134827,-0.017794743782443775,-0.07816873229681805,-0.07387739318164699,0.00027868150664405096,-0.004570020621815105,0.06612300849074543,0.06575525772172229,0.0001325299622491251,0.00023522080677402206,0.7796854197425426,0.7839300537928934,-0.000677787816922016,-0.003566846233428725,,,,,,,,,,,,
2.2199999999999998,9.956373993960925,9.994180626025342,-0.010748366301390833,-0.027058265763026026,-0.033550666986950126,-0.028401962287423643,-0.0011105867031148474,-0.0040381179964116345,0.05622992254126073,0.052861066145344804,0.00011162871187435136,0.0032572276840415757,1.4732744250211276,1.483631732505291,0.003534944570134827,-0.013892252054298344,-0.06434923703798275,-0.06395633049731483,0.00027868150664405096,-0.0006715880473119545,0.04965990844499062,0.04178419029297101,0.0001325299622491251,0.007743188189770491,0.7978267906402758,0.7981875143377363,-0.000677787816922016,0.0003170641194616012,-0.1762487530846795,-0.17630708688742575,0.0068733103943305045,-0.006814976591584256,-0.09634360648095755,-0.09978779354477973,-0.009869456699525898,0.013313643763348077,-0.02641407842352399,-0.008207754193531024,-0.004196408858150414,-0.014009915371842553
2.25,10.002219931063104,9.994319135963352,-0.010748366301390833,0.018649161401143838,-0.030694731481679317,-0.028815757419466514,-0.0011105867031148474,-0.0007683873590979533,0.047317017487369405,0.05447558399438224,0.00011162871187435136,-0.007270195218887185,1.5222742589109473,1.5077522780084234,0.003534944570134827,0.0109870363323889,-0.04799949438530083,-0.05125366996728063,0.00027868150664405096,0.0029754940753357537,0.017288897154489658,0.019818631226524285,0.0001325299622491251,-0.00266226403428375,0.8064646356971598,0.8094881483689919,-0.000677787816922016,-0.0023457248549100056,,,,,,,,,,,,
2.28,,,,,-0.02885091536064631,-0.028740288755090937,-0.0011105867031148474,0.0009999600975594742,0.048959963657199,0.055575101322671294,0.00011162871187435136,-0.006726766377346647,1.540335482072298,1.5321472393874167,0.003534944570134827,0.004653298114746517,-0.03688067818770789,-0.0365665519962856,0.00027868150664405096,-0.0005928076980663435,-0.002029783670966647,0.004220730817741219,0.0001325299622491251,-0.006383044450956991,0.8121629179733227,0.8157162447861254,-0.000677787816922016,-0.0028755389958805126,,,,,,,,,,,,
2.31,9.991874356434097,9.994706452657715,-0.010748366301390833,0.007916270077773558,-0.031691988942701706,-0.028454125785660977,-0.0011105867031148474,-0.0021272764539258834,0.06577809526933498,0.05568801662509948,0.00011162871187435136,0.009978449932361154,1.5637282701523965,1.5567681131620237,0.003534944570134827,0.0034252124202379048,-0.03843725567454991,-0.035578150346955044,0.00027868150664405096,-0.0031377868342389193,-0.029834536963129255,-0.027066263364280557,0.0001325299622491251,-0.0029008035610978214,0.8255439444700083,0.8224837553198466,-0.000677787816922016,0.0037379769670838167,-0.18752723956670264,-0.21982275722719827,0.0068733103943305045,0.02542220726616512,-0.12579888599277925,-0.1274115707805065,-0.009869456699525898,0.011482141487253154,-0.031558691779747794,-0.008359204348272734,-0.004196408858150414,-0.019003078573324644
2.34,,,,,-0.03689295367701012,-0.0280146535934076,-0.0011105867031148474,-0.007767713380487671,0.057078166196515484,0.05566131764807558,0.00011162871187435136,0.0013052198365655512,1.5835734787830742,1.581615404730183,0.003534944570134827,-0.001576870517243587,-0.02347969010112007,-0.028441728078271156,0.00027868150664405096,0.004683356470507032,-0.030438948769586697,-0.02832022596154005,0.0001325299622491251,-0.0022512527702957708,0.8249706294576798,0.8305844918748306,-0.000677787816922016,-0.004936074600228743,,,,,,,,,,,,
2.37,9.982287460941896,9.995230122007996,-0.010748366301390833,-0.0021942947647091275,-0.035318922656646656,-0.027589855810002284,-0.0011105867031148474,-0.006618480143529526,0.06336932045723306,0.05533451253606003,0.00011162871187435136,0.007923179209298675,1.587989742140216,1.606685472462642,0.003534944570134827,-0.022230674892560972,-0.023320301794218692,-0.03313801154966155,0.00027868150664405096,0.009539028248798808,-0.0394130698344808,-0.037814247694476784,0.0001325299622491251,-0.0017313521022531437,0.8415143752859784,0.8369106197639006,-0.000677787816922016,0.00528154333899988,,,,,,,,,,,,
2.4,10.001082141660628,9.99553174348755,-0.010748366301390833,0.016298764474469322,-0.027129915023460266,-0.026848271353618447,-0.0011105867031148474,0.0008289430332730286,0.06310180762952869,0.054530622274948204,0.00011162871187435136,0.008459556642706124,1.6187121669519104,1.6319458419185269,0.003534944570134827,-0.016768619536751354,-0.020170460392858584,-0.01662747819082863,0.00027868150664405096,-0.003821663708674008,-0.05441552675270403,-0.052955523676307924,0.0001325299622491251,-0.0015925330386452297,0.8475797995092764,0.8423788075060317,-0.000677787816922016,0.005878779820166772,-0.2787335845612216,-0.26422365471722997,0.0068733103943305045,-0.021383240238322103,-0.16222879710659902,-0.1526712716608684,-0.009869456699525898,0.0003119312537953185,-0.027813345139542645,-0.008124894342206642,-0.004196408858150414,-0.01549204193918559
2.4299999999999997,,,,,-0.02741829324041815,-0.0260628890906629,-0.0011105867031148474,-0.00024481744664040363,0.04975243650005446,0.053523836439207884,0.00011162871187435136,-0.0038830286510277783,1.6807073649407012,1.6573939850567303,0.003534944570134827,0.01977843531383592,-0.016783840756231266,-0.020976226553499917,0.00027868150664405096,0.003913704290624599,-0.05554387740598613,-0.057152234017762656,0.0001325299622491251,0.0014758266495273984,0.8513050165544636,0.8492801979656514,-0.000677787816922016,0.002702606405734296,,,,,,,,,,,,
2.46,9.956786536500285,9.99618941560708,-0.010748366301390833,-0.028654512805405444,-0.017969711511556824,-0.025544312122209423,-0.0011105867031148474,0.008685187313767448,0.04834657891062684,0.05228065231600354,0.00011162871187435136,-0.004045702117251052,1.7087076287871108,1.683020157698011,0.003534944570134827,0.02215252651896484,-0.024017151892831167,-0.030612288361058483,0.00027868150664405096,0.006316454961583264,-0.06176103286640641,-0.06378722137144435,0.0001325299622491251,0.0018936585427888181,0.8558964098963676,0.8541463405381727,-0.000677787816922016,0.002427857175116976,,,,,,,,,,,,
2.4899999999999998,,,,,-0.024929766725765818,-0.024841258669612287,-0.0011105867031148474,0.0010220786469613168,0.05836335248446674,0.0508809592928392,0.00011162871187435136,0.007370764479753186,1.7068198598952034,1.7087842588217965,0.003534944570134827,-0.005499343496728138,-0.009428691874520445,-0.016529295596320104,0.00027868150664405096,0.006821922215155605,-0.06621673386236834,-0.06860906253726942,0.0001325299622491251,0.0022597987126519534,0.86049672146197,0.8583220069911561,-0.000677787816922016,0.0028525022877359213,,,,,,,,,,,,
2.52,10.007038084018909,9.9968969019348,-0.010748366301390833,0.020889548385499487,-0.02192977889670769,-0.024244711202131786,-0.0011105867031148474,0.0034255190085389427,0.046261880848624724,0.04938494868978527,0.00011162871187435136,-0.0032346965530348987,1.7175681668166671,1.734720367902976,0.003534944570134827,-0.02068714565644371,-0.03070178386037394,-0.026197518097296542,0.00027868150664405096,-0.004782947269721449,-0.06968122629265155,-0.07017745025101889,0.0001325299622491251,0.0003636939961182196,0.8691247222994435,0.865591063260037,-0.000677787816922016,0.0042114468563285495,-0.3259093157897153,-0.317244348464754,0.0068733103943305045,-0.015538277719291787,-0.19602841890552639,-0.1866166937289682,-0.009869456699525898,0.00045773152296772426,0.005345150627957028,-0.008118263800900994,-0.004196408858150414,0.017659823287008436
2.55,9.970767034185824,9.997267487327067,-0.010748366301390833,-0.015752086839852436,-0.02447615235068307,-0.0237417813847709,-0.0011105867031148474,0.0003762157372026779,0.04937219006387314,0.04807943532994763,0.00011162871187435136,0.0011811260220511556,1.7674882551564182,1.7607777162974063,0.003534944570134827,0.003175594288876984,-0.024261293724837114,-0.02440944157788735,0.00027868150664405096,-0.000130533653593815,-0.06263916394988174,-0.06406544774236682,0.0001325299622491251,0.0012937538302359572,0.8678066897711368,0.8673140391210861,-0.000677787816922016,0.0011704384669728486,,,,,,,,,,,,
2.58,,,,,-0.0211471506842743,-0.023006409515605064,-0.0011105867031148474,0.0029698455344456124,0.04331165387455228,0.04665217494964402,0.00011162871187435136,-0.0034521497869660876,1.7775335805895958,1.7867580854062854,0.003534944570134827,-0.012759449386824596,-0.017167704491668764,-0.013377058064078542,0.00027868150664405096,-0.004069327934234273,-0.07146076495688669,-0.06760559959565592,0.0001325299622491251,-0.003987695323479891,0.8612199360331023,0.8608536373093224,-0.000677787816922016,0.0010440865407019288,,,,,,,,,,,,
2.61,9.982009037361438,9.998043729605634,-0.010748366301390833,-0.00528632594280525,-0.02726948836161307,-0.022306863136351218,-0.0011105867031148474,-0.0038520385221470044,0.0430648896594723,0.04520793491767572,0.00011162871187435136,-0.002254673970077777,1.844687663561047,1.812450123843175,0.003534944570134827,0.028702595147737073,-0.01700132715599851,-0.017462289374873298,0.00027868150664405096,0.00018228071223073513,-0.06659708032943493,-0.06656503534423237,0.0001325299622491251,-0.00016457494745166876,0.8479965274761991,0.8488151193720976,-0.000677787816922016,-0.00014080407897639456,-0.3529354142324332,-0.35454208264820947,0.0068733103943305045,-0.0052666419785542245,-0.23123499639864703,-0.2082084005723296,-0.009869456699525898,-0.01315713912679153,0.019097141717246878,-0.0074625931591889875,-0.004196408858150414,0.03075614373458628
2.6399999999999997,,,,,-0.021725791663832997,-0.021691131850136713,-0.0011105867031148474,0.0010759268894185642,0.043601244033274464,0.04367726052814147,0.00011162871187435136,-0.00018764520674135893,1.8553330010834863,1.837727741381503,0.003534944570134827,0.014070315131848433,-0.019145598272663596,-0.017036058658058257,0.00027868150664405096,-0.0023882211212493914,-0.07080847873792856,-0.0686031692145072,0.0001325299622491251,-0.0023378394856704778,0.8326642373602757,0.8335068649712922,-0.000677787816922016,-0.00016483979409441353,,,,,,,,,,,,
2.67,9.991936845314696,9.998842970579902,-0.010748366301390833,0.003842241036183966,-0.02392905447882091,-0.021084591442285028,-0.0011105867031148474,-0.0017338763334210378,0.04360576966989274,0.04221514208530941,0.00011162871187435136,0.0012789988727089766,1.8872367563358903,1.862468853347381,0.003534944570134827,0.0212329584183743,-0.01788687839300596,-0.01468985760909126,0.00027868150664405096,-0.00347570229055875,-0.06393110617092901,-0.065413367013168,0.0001325299622491251,0.0013497308799898728,0.8133688975463952,0.8137032821219404,-0.000677787816922016,0.00034340324137678644,,,,,,,,,,,,
